area_type,availability,location,size,society,total_sqft,bath,balcony,price,latitude,longitude
Super built-up  Area,19-Dec,Electronic City Phase II,2 BHK,Coomee ,1056,2,1,39.07,12.8463512,77.6690975
Plot  Area,Ready To Move,Chikka Tirupathi,4 BHK,Theanmp,2600,5,3,120,12.8957681,77.8671014
Super built-up  Area,Ready To Move,Lingadheeranahalli,3 BHK,Soiewre,1521,3,1,95,13.0026688,77.4915418
Super built-up  Area,Ready To Move,Whitefield,2 BHK,DuenaTa,1170,2,1,38,12.9963995,77.7614229
Super built-up  Area,18-May,Old Airport Road,4 BHK,Jaades ,2732,4,3,204,12.9572062,77.6741501
Super built-up  Area,Ready To Move,Rajaji Nagar,4 BHK,Brway G,3300,4,1,600,12.9945793,77.5503967
Plot  Area,Ready To Move,Whitefield,4 BHK,Prrry M,2785,5,2,295,12.9963995,77.7614229
Super built-up  Area,Ready To Move,7th Phase JP Nagar,2 BHK,Shncyes,1000,2,2,38,12.9136133,77.595695
Plot  Area,Ready To Move,Sarjapur,3 BHK,Skityer,2250,3,2,148,12.9116225,77.6388622
Super built-up  Area,Ready To Move,Mysore Road,2 BHK,PrntaEn,1175,2,3,73.5,12.9466619,77.5300896
Super built-up  Area,Ready To Move,Raja Rajeshwari Nagar,3 BHK,GrrvaGr,1540,3,1,60,12.932582,77.5162034
Super built-up  Area,Ready To Move,Ramakrishnappa Layout,3 BHK,PeBayle,2770,4,2,290,12.9778951,77.5164792
Plot  Area,Ready To Move,Thanisandra,4 BHK,Soitya ,2800,5,1,380,13.054713,77.6339258
Super built-up  Area,18-Nov, Thanisandra,1 BHK,Bhe 2ko,510,1,2,25.25,13.054713,77.6339258
Super built-up  Area,Ready To Move,Electronic City,2 BHK,Itelaa ,660,1,1,23.1,12.8487599,77.648253
Super built-up  Area,17-Oct,Ramagondanahalli,2 BHK,ViistLa,1151,2,0,48.77,12.9558969,77.7405826
Super built-up  Area,Ready To Move,Electronic City,3 BHK,KBityo ,1025,2,1,47,12.8487599,77.648253
Super built-up  Area,19-Dec,Yelahanka,4 BHK,LedorSa,2475,4,2,186,13.1006982,77.5963454
Super built-up  Area,Ready To Move,Hebbal,3 BHK,Mahosya,1760,2,1,123,13.0382184,77.5919
Super built-up  Area,Ready To Move,Raja Rajeshwari Nagar,3 BHK,GrrvaGr,1693,3,2,57.39,12.932582,77.5162034
Built-up  Area,Ready To Move,Kasturi Nagar,3 BHK,Kantsce,1925,3,2,125,13.0044979,77.6603231
Super built-up  Area,21-Dec,Kanakpura Road,2 BHK,PrarePa,700,2,0,36,12.8856913,77.5526564
Super built-up  Area,Ready To Move,Kundalahalli,3 BHK,Dieldli,1724,3,2,125,12.977594,77.7155586
Built-up  Area,Ready To Move,Murugeshpalya,2 BHK,Gentson,1296,2,0,81,12.9589407,77.6555917
Super built-up  Area,19-Dec,Sarjapur  Road,3 BHK,Soini T,1254,3,1,38,12.9239386,77.6396966
Super built-up  Area,Ready To Move,Ganga Nagar,1 BHK,Ceove G,600,1,1,38,13.0232471,77.5883569
Super built-up  Area,19-Sep,Kanakpura Road,2 BHK,Soazak ,1330.74,2,1,91.79,12.8856913,77.5526564
Super built-up  Area,Ready To Move,Doddathoguru,2 BHK,LancyRe,970,2,2,33,12.8505644,77.6466948
Super built-up  Area,20-Sep,Whitefield,2 BHK,Goted U,1459,2,2,94.82,12.9963995,77.7614229
Super built-up  Area,Ready To Move,Adarsh Nagar,2 BHK,Bhncyis,1270,2,3,50,13.0305452,77.609433
Built-up  Area,Ready To Move,Whitefield,3 BHK,Suent V,2010,3,2,91,12.9963995,77.7614229
Super built-up  Area,Ready To Move,Yelahanka,3 BHK,NCowsar,1600,2,3,75,13.1006982,77.5963454
Super built-up  Area,Ready To Move,Begur Road,2 BHK,Dhalsh ,1200,2,2,44,12.8856188,77.6252418
Built-up  Area,20-Feb,Devanahalli,4 BHK,BrereAt,3210,2,3,192,13.2483502,77.7134377
Super built-up  Area,Ready To Move,Ramakrishnappa Layout,2 BHK,PeBayle,1500,2,1,185,12.9778951,77.5164792
Super built-up  Area,Ready To Move,Ganga Nagar,2 BHK,Laavevi,845,5,1,55,13.0232471,77.5883569
Plot  Area,Ready To Move,Whitefield,4 BHK,Chranya,5700,2,1,650,12.9963995,77.7614229
Built-up  Area,Ready To Move,Varthur,2 BHK,HioraTr,1160,2,2,44,12.9406508,77.746988
Super built-up  Area,18-Apr,Gunjur,2 BHK,BMineis,1140,2,3,43,12.9209772,77.7361016
Super built-up  Area,20-Aug,Begur Road,2 BHK,Pruthg ,1358,3,2,80.58,12.8856188,77.6252418
Super built-up  Area,Ready To Move,Hegde Nagar,3 BHK,Sonosty,1569,2,2,101,13.0720352,77.6333905
Super built-up  Area,18-Apr,Haralur Road,2 BHK,SNnia E,1240,3,2,70,12.9018012,77.6641767
Super built-up  Area,Ready To Move,Hennur Road,3 BHK,Anavi B,2089,3,2,140,13.0351224,77.631944
Built-up  Area,Ready To Move,Cholanayakanahalli,3 BHK,Viony H,2511,2,2,205,13.0364498,77.5975272
Built-up  Area,18-Oct,Hennur Road,4 BHK,Gollela,3203.5,5,3,224.5,13.0351224,77.631944
Super built-up  Area,19-Mar,Yelahanka,2 BHK,Niareum,1326,2,1,78,13.1006982,77.5963454
Super built-up  Area,Ready To Move,EPIP Zone,3 BHK,SJlynro,1499,2,3,102,12.9781922,77.7246451
Super built-up  Area,17-Sep,Dasanapura,2 BHK,Tavenew,708,2,1,37,12.7467724,77.7742876
Super built-up  Area,Ready To Move,Kasavanhalli,2 BHK,Srire S,1060,2,1,58.06,12.9047595,77.6759172
Built-up  Area,Ready To Move,Sanjay nagar,2 BHK,Saenti ,1000,4,2,70,12.9578658,77.6958748
Super built-up  Area,17-Aug,Thanisandra,2 BHK,Bhmesy ,1296,3,2,80,13.054713,77.6339258
Plot  Area,Ready To Move,Kengeri,4 BHK,Goardth,2894,1,2,245,12.9176571,77.4837568
Super built-up  Area,Ready To Move,Yeshwanthpur,3 BHK,IBityin,2502,2,2,138,13.0176937,77.5555009
Built-up  Area,Ready To Move,Chandapura,2 BHK,KHityry,650,2,2,17,12.8009043,77.7114908
Plot  Area,Ready To Move,Kothanur,3 BHK,BDensar,2400,2,1,150,13.0613601,77.6493895
Super built-up  Area,Ready To Move,Green View Layout,2 BHK,Makeser,1007,3,1,43,13.0084501,77.6581724
Super built-up  Area,Ready To Move,Shantiniketan Layout,2 BHK,Maest N,1200,2,2,50,12.8824524,77.6024627
Built-up  Area,Ready To Move,Rajaji Nagar,3 BHK,Brway G,1640,2,3,229,12.9945793,77.5503967
Super built-up  Area,19-Apr,Devanahalli,2 BHK,Oznuean,1260,2,2,66.78,13.2483502,77.7134377
Super built-up  Area,Ready To Move,Byatarayanapura,3 BHK,Reeroce,1413,2,1,75,13.0666526,77.591967
Super built-up  Area,Ready To Move,Whitefield,2 BHK,Sonviik,1116,3,0,51.91,12.9963995,77.7614229
Super built-up  Area,Ready To Move,Electronic City,3 BHK,DSgmax ,1530,2,2,45.9,12.8487599,77.648253
Built-up  Area,Ready To Move,Sarjapur  Road,3 BHK,Cetattu,2497,3,2,140,12.9239386,77.6396966
Super built-up  Area,Ready To Move,Kengeri,3 BHK,Vaens G,1540,3,1,64,12.9176571,77.4837568
Super built-up  Area,Ready To Move,Thanisandra,3 BHK,Moity S,1427,4,3,120,13.054713,77.6339258
Super built-up  Area,Ready To Move,Akshaya Nagar,3 BHK,HiahsLa,2061,2,1,200,13.0195427,77.6831272
Super built-up  Area,18-Mar,Hebbal,4 BHK,SNontle,5611.5,3,1,477,13.0382184,77.5919
Super built-up  Area,22-Dec,Devanahalli,3 BHK,Sabixtt,1282,2,2,68.52,13.2483502,77.7134377
Built-up  Area,Ready To Move,LB Shastri Nagar,3 BHK,Sragei ,1600,3,1,65,12.9678103,77.6715478
Super built-up  Area,Ready To Move,Hormavu,2 BHK,SyidaCr,1500,3,1,78,13.016672,77.6548126
Built-up  Area,Ready To Move,Peenya,3 BHK,Jahts H,1870,1,0,110,13.0330515,77.5332233
Plot  Area,Ready To Move,Sarjapur,3 BHK,Inensba,1600,3,2,75,12.9116225,77.6388622
Super built-up  Area,Ready To Move,Electronic City,2 BHK,Itelaa ,880,2,1,16.5,12.8487599,77.648253
Super built-up  Area,Ready To Move,Kudlu Gate,3 BHK,Srier P,1535,2,1,83,12.8899174,77.6396808
Built-up  Area,Ready To Move,Kanakpura Road,2 BHK,Wiowsri,950,2,1,57,12.8856913,77.5526564
Super built-up  Area,18-Aug,Devanahalli,2 BHK,Derdsig,1360,2,1,65,13.2483502,77.7134377
Super built-up  Area,19-Mar,8th Phase JP Nagar,2 BHK,Vaarech,1073.5,5,3,54.005,12.9104062,77.5951099
Super built-up  Area,19-Jan,Chandra Layout,3 BHK,TiaksAa,1260,3,2,85.05,12.9590406,77.5250913
Super built-up  Area,19-Dec,Yelahanka,5 BHK,LedorSa,3050,2,1,213,13.1006982,77.5963454
Super built-up  Area,Ready To Move,Kasavanhalli,3 BHK,HMwerCo,1563.05,3,2,105,12.9047595,77.6759172
Super built-up  Area,17-Jul,Anandapura,2 BHK,ViensRK,1167,2,1,43.76,13.0239276,77.6923621
Super built-up  Area,Ready To Move,Kothanur,3 BHK,Somumys,1828,3,3,110,13.0613601,77.6493895
Super built-up  Area,Ready To Move,Kengeri Satellite Town,2 BHK,HoiewLa,890,4,1,35,12.9229728,77.4842926
Super built-up  Area,Ready To Move,Basavanapura,3 BHK,Dwity T,1612,2,1,46.74,13.0169075,77.7207063
Super built-up  Area,19-Apr,Mysore Road,3 BHK,Brama P,1710,4,1,91.31,12.9466619,77.5300896
Super built-up  Area,Ready To Move,Kannamangala,2 BHK,VBownre,957,2,1,58,13.0155506,77.7630344
Super built-up  Area,Ready To Move,Sanjeevini Nagar,3 BHK,Betatsi,2795,2,0,235,12.9604735,77.5593446
Super built-up  Area,Ready To Move,Hulimavu,2 BHK,Prcan P,1125,3,2,50,12.8773486,77.6028031
Super built-up  Area,18-Jul,Electronic City Phase II,2 BHK,Sryalan,1020,3,1,30.6,12.8463512,77.6690975
Super built-up  Area,Ready To Move,Thanisandra,3 BHK,Soitya ,1735,2,1,135,13.054713,77.6339258
Super built-up  Area,Ready To Move,Thanisandra,3 BHK,G conTh,2050,3,2,145,13.054713,77.6339258
Super built-up  Area,18-May,Hosa Road,2 BHK,SStusan,1063,3,1,32,12.8816077,77.6448181
Super built-up  Area,Ready To Move,Keshava Nagar,3 BHK,ETens G,1904,2,1,150,12.9598176,77.5335655
Super built-up  Area,Ready To Move,RMV Extension,3 BHK,Hohnari,2000,2,1,175,13.0356488,77.574775
Super built-up  Area,18-Dec,Sarjapur,2 BHK,Kinuerg,1242.5,2,3,43.49,12.9116225,77.6388622
Super built-up  Area,Ready To Move,Tejaswini Nagar,3 BHK,Naods W,1425,2,2,75,12.8601269,77.6053051
Super built-up  Area,Ready To Move,Electronic City,3 BHK,GMown E,1500,2,1,64.5,12.8487599,77.648253
Built-up  Area,Ready To Move,Electronic City,2 BHK,GMown E,1060,1,3,60,12.8487599,77.648253
Built-up  Area,Ready To Move,Jai Bheema Nagar,3 BHK,Sancyra,1470,2,2,70,12.9194294,77.6169759
Super built-up  Area,Ready To Move,Attibele,1 BHK,Jae 1hu,450,2,2,11,12.7751249,77.7709216
Super built-up  Area,18-Apr,Electronic City,2 BHK,Prarkun,1152,3,2,64.5,12.8487599,77.648253
Super built-up  Area,Ready To Move,Electronic City,3 BHK,GMown E,1350,1,1,56,12.8487599,77.648253
Super built-up  Area,Ready To Move,CV Raman Nagar,3 BHK,Srshq T,1550,1,1,65,12.9850987,77.6631173
Super built-up  Area,Ready To Move,Malleshwaram,1 BHK,Utntspa,705,2,0,67,13.0027353,77.5703253
Built-up  Area,Ready To Move,Electronic City,2 BHK,GMown E,770,3,2,36,12.8487599,77.648253
Super built-up  Area,Ready To Move,Hulimavu,2 BHK,Aniona ,1242,3,3,51,12.8773486,77.6028031
Super built-up  Area,Ready To Move,Hebbal Kempapura,3 BHK,Goateds,1700,3,2,155,13.0514799,77.5933559
Super built-up  Area,Ready To Move,Thanisandra,3 BHK,Soitya ,2144,2,2,145,13.054713,77.6339258
Super built-up  Area,21-Jun,Vijayanagar,3 BHK,Saahaat,1704,2,2,110,12.9709537,77.5373851
Super built-up  Area,Ready To Move,Electronic City,2 BHK,GMown E,1070,2,2,52,12.8487599,77.648253
Built-up  Area,Ready To Move,Electronic City,2 BHK,GMown E,1025,2,2,46,12.8487599,77.648253
Super built-up  Area,Ready To Move,KR Puram,2 BHK,MCvarar,1277.5,2,2,56.8,13.007516,77.695935
Super built-up  Area,Ready To Move,Marathahalli,2 BHK,VRave E,1200,2,2,52,12.9552572,77.6984163
Super built-up  Area,Ready To Move,Pattandur Agrahara,3 BHK,MaidoPl,1550,2,1,80,12.9876393,77.7377718
Super built-up  Area,Ready To Move,Marathahalli,2 BHK,Aiitya ,1200,3,2,60,12.9552572,77.6984163
Super built-up  Area,Ready To Move,Yelahanka,2 BHK,PuziaVe,1327,2,2,98,13.1006982,77.5963454
Super built-up  Area,Ready To Move,HSR Layout,3 BHK,NRosete,1400,2,3,56,12.9116225,77.6388622
Built-up  Area,Ready To Move,Whitefield,2 BHK,Sancya ,1225,2,1,47.6,12.9963995,77.7614229
Built-up  Area,Ready To Move,Kadugodi,3 BHK,MSingco,1260,3,1,54,12.9957428,77.7579489
Super built-up  Area,Ready To Move,Yelahanka,3 BHK,Pyikad ,1282,2,2,48.7,13.1006982,77.5963454
Super built-up  Area,Ready To Move,Kogilu,3 BHK,CaIRSCr,1909,3,2,88,13.103973,77.6167721
Super built-up  Area,Ready To Move,Panathur,2 BHK,Prcesvy,1359,3,3,87,12.9351457,77.7047541
Super built-up  Area,Ready To Move,Kammasandra,3 BHK,Emstael,1595,3,1,65,13.079198,77.7136366
Super built-up  Area,Ready To Move,Electronics City Phase 1,3 BHK,SNdri N,1475,2,2,78.29,12.8401734,77.6595099
Super built-up  Area,Ready To Move,Dasarahalli,2 BHK,Syonyph,1295,3,2,65,12.9784134,77.5427194
Super built-up  Area,Ready To Move,Electronic City,1 BHK,Itvir M,589,3,2,27,12.8487599,77.648253
Super built-up  Area,18-Dec,Sarjapur  Road,3 BHK,Klark L,1787,2,2,98.29,12.9239386,77.6396966
Super built-up  Area,Ready To Move,Sarjapur  Road,3 BHK,Klark L,1787,2,2,125,12.9239386,77.6396966
Super built-up  Area,Ready To Move,Koramangala,3 BHK,Piityra,1475,4,2,90,12.9357366,77.624081
Super built-up  Area,19-Mar,Sarjapur  Road,2 BHK,AsastDe,984,2,1,44.28,12.9239386,77.6396966
Super built-up  Area,19-Dec,Devanahalli,3 BHK,Jurdsig,1630,2,1,74.82,13.2483502,77.7134377
Built-up  Area,Ready To Move,7th Phase JP Nagar,2 BHK,Brnia G,1080,2,3,72,12.9136133,77.595695
Super built-up  Area,Ready To Move,Budigere,2 BHK,PrityTr,1153,2,3,56.4,13.1351506,77.7471989
Super built-up  Area,Ready To Move,Mylasandra,2 BHK,Laowsba,1110,3,1,55,12.9081751,77.4928309
Built-up  Area,Ready To Move,Electronic City,2 BHK,Saave R,1100,1,2,42,12.8487599,77.648253
Super built-up  Area,Ready To Move,Kalyan nagar,2 BHK,Anave S,1290,1,2,110,13.0221416,77.6403368
Super built-up  Area,21-Jun,Vijayanagar,3 BHK,Saityat,1933,3,1,129,12.9709537,77.5373851
Super built-up  Area,18-Aug,Chandapura,1 BHK,SunceEs,645,2,2,16.45,12.8009043,77.7114908
Super built-up  Area,18-Sep,Chandapura,1 BHK,SunceEs,645,2,1,16.45,12.8009043,77.7114908
Super built-up  Area,Ready To Move,Ashwath Nagar,3 BHK,SJcerpe,1644,3,2,84,13.0467537,77.6321873
Super built-up  Area,Ready To Move,Ncpr Industrial Layout,2 BHK,Supams ,1285,3,2,72.5,12.9859964,77.7128545
Super built-up  Area,Ready To Move,Electronic City,2 BHK,CoapeSo,910,3,2,40,12.8487599,77.648253
Super built-up  Area,Ready To Move,Kothanur,3 BHK,Bisic C,1577,1,2,70,13.0613601,77.6493895
Super built-up  Area,Ready To Move,OMBR Layout,3 BHK,Inntsa ,2420,2,2,185,13.0082113,77.652778
Super built-up  Area,Ready To Move,Chandapura,2 BHK,KHityry,800,3,0,20,12.8009043,77.7114908
Super built-up  Area,Ready To Move,7th Phase JP Nagar,2 BHK,BriumMi,1270,3,2,93,12.9136133,77.595695
Super built-up  Area,17-Jun,Electronic City,2 BHK,Prarkun,1108,3,1,63,12.8487599,77.648253
Super built-up  Area,Ready To Move,Coffee Board Layout,3 BHK,Calyxy ,3045,2,2,170,13.0503251,77.6060803
Plot  Area,Ready To Move,Ambedkar Nagar,4 BHK,Thessrm,2900,2,2,300,12.9490851,77.6184873
Super built-up  Area,Ready To Move,Vijayanagar,3 BHK,JJortom,1500,2,2,75.5,12.9709537,77.5373851
Super built-up  Area,Ready To Move,Raja Rajeshwari Nagar,2 BHK,GrrvaGr,1295,4,1,43.9,12.932582,77.5162034
Super built-up  Area,Ready To Move,Budigere,2 BHK,PrityTr,1162,2,2,59.9,13.1351506,77.7471989
Super built-up  Area,Ready To Move,Sarjapur  Road,2 BHK,Usquaya,1035,1,3,49.2,12.9239386,77.6396966
Built-up  Area,Ready To Move,Attibele,4 BHK,Natic T,1600,3,3,52.8,12.7751249,77.7709216
Super built-up  Area,18-Oct,Hennur Road,3 BHK,DSapeSk,1866,3,1,61.58,13.0351224,77.631944
Super built-up  Area,Ready To Move,Geleyara Balaga Layout,2 BHK,Jahtsa ,700,3,1,26,13.0712823,77.5061497
Super built-up  Area,Ready To Move,Kalena Agrahara,3 BHK,Prillot,1804,2,1,120,12.8658068,77.5911918
Super built-up  Area,Ready To Move,Hegde Nagar,3 BHK,SoitaCa,2026,3,1,132,13.0720352,77.6333905
Super built-up  Area,Ready To Move,Balagere,2 BHK,Soestin,1210,3,2,80.9,12.9377243,77.7280705
Super built-up  Area,Ready To Move,Kadugodi,3 BHK,Alestrb,1762,2,1,91.45,12.9957428,77.7579489
Super built-up  Area,Ready To Move,Jigani,3 BHK,DLhtsen,1252,3,2,55,12.7756195,77.6324661
Built-up  Area,Ready To Move,7th Phase JP Nagar,3 BHK,Brnia G,1420,2,1,100,12.9136133,77.595695
Built-up  Area,Ready To Move,Electronics City Phase 1,3 BHK,GaicaVe,1490,2,3,78.8,12.8401734,77.6595099
Super built-up  Area,18-Aug,Old Madras Road,3 BHK,Saesttt,1425,2,2,94,13.0082277,77.6941931
Built-up  Area,Ready To Move,Kalena Agrahara,2 BHK,Nae 2El,1200,2,0,40,12.8658068,77.5911918
Super built-up  Area,Ready To Move,Silver Springs Layout,2 BHK,Bhinglv,1084,2,2,50,12.9582324,77.7098778
Super built-up  Area,18-Jul,Chandapura,2 BHK,SunceEs,1015,2,1,25.88,12.8009043,77.7114908
Super built-up  Area,21-May,Kanakpura Road,2 BHK,GolusLi,1017,2,1,51.25,12.8856913,77.5526564
Super built-up  Area,Ready To Move,Electronic City Phase II,2 BHK,Coush W,1069,2,0,45,12.8463512,77.6690975
Super built-up  Area,Ready To Move,Hebbal,2 BHK,Prersis,1349,2,2,98.2,13.0382184,77.5919
Super built-up  Area,Ready To Move,9th Phase JP Nagar,2 BHK,NaensGa,1005,4,3,50,12.9107357,77.5829631
Super built-up  Area,Ready To Move,Jakkur,2 BHK,Arzzo P,1417,3,1,75,13.0784743,77.6068938
Carpet  Area,Ready To Move,Maruthi Sevanagar,2 BHK,SMikaay,950,2,2,47,13.0027048,77.6346165
Super built-up  Area,Ready To Move,RMV 2nd Stage,4 BHK,Prave E,2000,2,3,120,13.0360109,77.5695288
Super built-up  Area,Ready To Move,Sarjapur  Road,4 BHK,Ahriaup,1863,3,3,104,12.9239386,77.6396966
Super built-up  Area,Ready To Move,Singasandra,2 BHK,Priewhi,1010,3,3,29.5,12.8810223,77.6490068
Super built-up  Area,Ready To Move,Kalena Agrahara,3 BHK,Shodsth,1425,2,3,70,12.8658068,77.5911918
Super built-up  Area,Ready To Move,Vijayanagar,3 BHK,Swadeh ,1450,1,3,100,12.9709537,77.5373851
Super built-up  Area,Ready To Move,Kothanur,3 BHK,Somumys,1847,3,2,105,13.0613601,77.6493895
Super built-up  Area,Ready To Move,AECS Layout,2 BHK,Soran U,1100,4,1,45,13.0311884,77.5753526
Super built-up  Area,20-Dec,Kanakpura Road,1 BHK,PrarePa,525,3,1,26,12.8856913,77.5526564
Super built-up  Area,Ready To Move,Mallasandra,3 BHK,Puestig,1665,2,1,95,13.0569525,77.5209467
Super built-up  Area,Ready To Move,Begur,4 BHK,Prntsrt,1664,3,2,65,12.8633887,77.6130112
Super built-up  Area,Ready To Move,JP Nagar,3 BHK,Maerar ,1850,3,2,150,12.9096941,77.5866067
Super built-up  Area,Ready To Move,Panathur,2 BHK,Vaesh T,1438,2,2,100,12.9351457,77.7047541
Super built-up  Area,Ready To Move,Kanakpura Road,3 BHK,JRrnauv,1550,2,2,67,12.8856913,77.5526564
Super built-up  Area,Ready To Move,Whitefield,2 BHK,Gotis A,1280,2,2,75,12.9963995,77.7614229
Super built-up  Area,Ready To Move,Hennur Road,2 BHK,Mileeou,1385,3,1,83.09,13.0351224,77.631944
Super built-up  Area,18-Apr,Electronic City,2 BHK,Prarkun,1128,2,2,65,12.8487599,77.648253
Super built-up  Area,Ready To Move,Rajaji Nagar,3 BHK,PhestOn,2390,2,2,415,12.9945793,77.5503967
Super built-up  Area,Ready To Move,Haralur Road,3 BHK,NRowse ,1464,3,2,56,12.9018012,77.6641767
Super built-up  Area,Ready To Move,Kaval Byrasandra,2 BHK,Abncy R,1200,2,2,52,13.0200235,77.6092887
Super built-up  Area,Ready To Move,Kaggalipura,3 BHK,Baowsig,1150,3,1,55,12.8089587,77.5097006
Built-up  Area,Ready To Move,Basavanna Nagar,3 BHK,Itala A,1645,2,1,95,12.988867,77.7204442
Super built-up  Area,Ready To Move,6th Phase JP Nagar,2 BHK,HMinebo,1192,2,0,74,12.913332,77.5783216
Super built-up  Area,Ready To Move,Ulsoor,3 BHK,K borja,2135,6,2,215,12.9778793,77.6246697
Super built-up  Area,19-Dec,Whitefield,2 BHK,Oreldhi,1173,2,1,58,12.9963995,77.7614229
Built-up  Area,Ready To Move,Uttarahalli,2 BHK,Sungspr,1020,2,1,45,12.9055682,77.5455438
Super built-up  Area,Ready To Move,Thigalarapalya,4 BHK,Prtanha,3122,3,2,230,13.0170955,77.4829741
Super built-up  Area,Ready To Move, Devarachikkanahalli,2 BHK,Clntsrt,1250,3,3,40,12.9004917,77.6039129
Super built-up  Area,Ready To Move,Kalena Agrahara,2 BHK,PuamaPa,1325,3,1,76,12.8658068,77.5911918
Built-up  Area,Ready To Move,7th Phase JP Nagar,3 BHK,Brngsal,1850,3,3,150,12.9136133,77.595695
Super built-up  Area,21-Dec,Kanakpura Road,1 BHK,PrarePa,525,2,1,21.53,12.8856913,77.5526564
Super built-up  Area,18-Jun,Bommasandra,3 BHK,SSestth,1260,2,2,49.36,13.0544346,77.5593269
Super built-up  Area,Ready To Move,Prashanth Nagar,3 BHK,Vancy R,1800,3,1,150,12.9776188,77.5313254
Plot  Area,18-Dec,Suragajakkanahalli,3 BHK,PrhyaK ,11,2,0,74,12.7361919,77.6654422
Built-up  Area,Ready To Move,Ardendale,2 BHK,Miwel M,1100,1,2,43.25,13.0261316,77.7664705
Super built-up  Area,Ready To Move,Harlur,2 BHK,SrEndPo,1508,5,2,77,12.9058923,77.675465
Carpet  Area,Ready To Move,Sampigehalli,3 BHK,Puens G,1592,2,1,75,13.0816353,77.6182669
Super built-up  Area,Ready To Move,Akshaya Nagar,2 BHK,SagasSa,1388,2,2,57,13.0195427,77.6831272
Super built-up  Area,18-May,Electronic City Phase II,1 BHK,SNbay G,630,2,2,28.35,12.8463512,77.6690975
Super built-up  Area,Ready To Move,Kodihalli,4 BHK,Soianal,3252,1,1,335,12.9624481,77.6463772
Super built-up  Area,18-Aug,Magadi Road,2 BHK,Vrenty ,1116,2,2,50,12.975608,77.5553564
Super built-up  Area,Ready To Move,Narayanapura,2 BHK,AriosHe,1308,2,2,89.04,13.0716969,77.6193949
Super built-up  Area,Ready To Move,Hennur,2 BHK,SLureSi,1075,2,1,52,13.037077,77.6413572
Super built-up  Area,18-Mar,Chandapura,1 BHK,Siissi ,530,5,2,11.66,12.8009043,77.7114908
Super built-up  Area,Ready To Move,5th Phase JP Nagar,2 BHK,Mangsr ,1075,2,0,60,12.91241,77.591056
Built-up  Area,Ready To Move,KR Puram,2 BHK,HovasTe,930,2,2,39,13.007516,77.695935
Super built-up  Area,Ready To Move,Balagere,2 BHK,Exncene,1380,3,0,60,12.9377243,77.7280705
Super built-up  Area,Ready To Move,Hebbal,4 BHK,Prersis,2483,2,2,212,13.0382184,77.5919
Super built-up  Area,Ready To Move,Bannerghatta Road,2 BHK,NadelCi,1050,3,1,65,12.9504037,77.6033713
Super built-up  Area,19-Mar,Gopalapura,3 BHK,Sothadr,2023.71,1,2,275,12.9806131,77.5581149
Super built-up  Area,Ready To Move,Begur Road,2 BHK,Dhalsh ,1200,3,1,46.8,12.8856188,77.6252418
Super built-up  Area,18-May,8th Phase JP Nagar,1 BHK,Maian M,451,2,3,29.9,12.9104062,77.5951099
Super built-up  Area,Ready To Move,Electronic City,3 BHK,ShstaAl,1800,2,2,95,12.8487599,77.648253
Super built-up  Area,18-May,Jalahalli,3 BHK,Shard T,1400,2,1,77,13.0394104,77.5197351
Super built-up  Area,Ready To Move,Hegde Nagar,3 BHK,SoitaCa,1801,3,1,115,13.0720352,77.6333905
Built-up  Area,Ready To Move,Mahadevpura,2 BHK,Neagar ,1451,2,2,90,12.9968412,77.6928386
Super built-up  Area,Ready To Move,Begur Road,2 BHK,Dhalsh ,1160,2,1,44,12.8856188,77.6252418
Super built-up  Area,Ready To Move,Kanakpura Road,2 BHK,Wiowsri,950,2,1,40,12.8856913,77.5526564
Super built-up  Area,21-Jun,Vijayanagar,3 BHK,Saityat,1826,3,2,121,12.9709537,77.5373851
Built-up  Area,Ready To Move,7th Phase JP Nagar,2 BHK,Eladero,1245,2,1,94,12.9136133,77.595695
Super built-up  Area,Ready To Move,Raja Rajeshwari Nagar,2 BHK,Lancyey,1145,2,1,45.79,12.932582,77.5162034
Super built-up  Area,Ready To Move,Sompura,2 BHK,Suiseit,825,2,2,33,12.8778283,77.4972385
Super built-up  Area,18-Aug,Yeshwanthpur,3 BHK,Aroomba,1693,2,1,108,13.0176937,77.5555009
Super built-up  Area,Ready To Move,Electronics City Phase 1,2 BHK,Courf T,1113.27,2,3,53,12.8401734,77.6595099
Built-up  Area,Ready To Move,Ashirvad Colony,2 BHK,VMowsea,1460,3,2,58,12.9398513,77.5740326
Built-up  Area,Ready To Move,Doddathoguru,2 BHK,S onsMa,1050,3,2,32,12.8505644,77.6466948
Built-up  Area,Ready To Move,Dodda Nekkundi,2 BHK,Tuentpa,1260,4,2,55,12.9686859,77.6966093
Built-up  Area,Ready To Move,Hosur Road,2 BHK,Tovesee,1656,2,1,120,12.9193621,77.6214458
Super built-up  Area,Ready To Move,Chandapura,3 BHK,Vailsaf,1208,3,1,45,12.8009043,77.7114908
Super built-up  Area,Ready To Move,Whitefield,3 BHK,BrlisCo,1910,2,2,161,12.9963995,77.7614229
Super built-up  Area,Ready To Move,Whitefield,4 BHK,Haestt ,3252,2,2,230,12.9963995,77.7614229
Super built-up  Area,Ready To Move,7th Phase JP Nagar,2 BHK,BriumMi,1175,3,2,82,12.9136133,77.595695
Super built-up  Area,Ready To Move,Rajaji Nagar,3 BHK,PhestOn,2390,3,1,410,12.9945793,77.5503967
Super built-up  Area,Ready To Move,Kengeri,2 BHK,VBvenal,750,4,0,38,12.9176571,77.4837568
Super built-up  Area,Ready To Move,Kanakpura Road,3 BHK,JRrnauv,1550,2,3,64.5,12.8856913,77.5526564
Super built-up  Area,Ready To Move,Budigere,3 BHK,PrityTr,1991,3,2,103,13.1351506,77.7471989
Super built-up  Area,18-Oct,Bommasandra,2 BHK,DSoodil,1060,2,1,26.5,13.0544346,77.5593269
Super built-up  Area,Ready To Move,Ambalipura,2 BHK,SJarkte,1105,2,1,75,12.9173303,77.667161
Built-up  Area,Ready To Move,Hoodi,2 BHK,Dhgraas,985,3,1,67,12.9959233,77.7192796
Super built-up  Area,17-Jul,Balagere,3 BHK,HiqueMa,1590,2,2,79,12.9377243,77.7280705
Super built-up  Area,Ready To Move,CV Raman Nagar,2 BHK,Srshq T,1120,2,1,55,12.9850987,77.6631173
Super built-up  Area,Ready To Move,Samethanahalli,2 BHK,SPontna,1069,2,2,55,12.979363,77.7907328
Super built-up  Area,Ready To Move,Marathahalli,3 BHK,Prionad,1933,4,1,140,12.9552572,77.6984163
Built-up  Area,16-Mar,Hosur Road,2 BHK,PuendWe,1194,3,2,69,12.9193621,77.6214458
Super built-up  Area,Ready To Move,Brookefield,2 BHK,Danna S,1150,3,1,69,12.9652094,77.717936
Super built-up  Area,Ready To Move,Raja Rajeshwari Nagar,2 BHK,GrrvaGr,1419,1,2,48.1,12.932582,77.5162034
Super built-up  Area,Ready To Move,Richmond Town,3 BHK,Bltonin,2150,2,1,240,12.963555,77.6015856
Super built-up  Area,Ready To Move,Suddaguntepalya,3 BHK,MSanaer,1450,2,2,55,12.931045,77.6098888
Super built-up  Area,Ready To Move,Dasanapura,2 BHK,Tavenew,708,2,2,40,12.7467724,77.7742876
Super built-up  Area,Ready To Move,Bellandur,2 BHK,Ocavees,1250,2,2,76,12.9361208,77.6671843
Super built-up  Area,Ready To Move,7th Phase JP Nagar,3 BHK,Brnia G,1400,1,3,95,12.9136133,77.595695
Super built-up  Area,Ready To Move,Ardendale,3 BHK,SoystAm,1750,3,0,100,13.0261316,77.7664705
Super built-up  Area,Ready To Move,Vittasandra,2 BHK,Prlla C,1404,2,1,71,12.8654221,77.6295788
Super built-up  Area,Ready To Move,Hoodi,3 BHK,SMaxyay,1715,3,1,95,12.9959233,77.7192796
Built-up  Area,18-Apr,Electronic City,1 BHK,Prarkun,630,2,2,34.65,12.8487599,77.648253
Super built-up  Area,Ready To Move,Harlur,3 BHK,SosicCl,1752.12,2,2,135,12.9058923,77.675465
Super built-up  Area,Ready To Move,Raja Rajeshwari Nagar,2 BHK,GrrvaGr,1295,4,1,55.47,12.932582,77.5162034
Plot  Area,Ready To Move,Giri Nagar,3 BHK,Bancyri,1800,2,1,252,12.9168572,77.5860216
Super built-up  Area,18-Sep,Sarjapur  Road,2 BHK,PualeSk,1346,3,1,74.03,12.9239386,77.6396966
Super built-up  Area,Ready To Move,Hormavu,2 BHK,ElavuHo,1150,9,1,55,13.016672,77.6548126
Built-up  Area,Ready To Move,Chikkabidarakallu,4 BHK,Gontyol,3309,3,0,325,13.0523616,77.4879154
Super built-up  Area,18-May,Chandapura,3 BHK,SunceEs,1190,2,2,30.35,12.8009043,77.7114908
Super built-up  Area,Ready To Move,AECS Layout,3 BHK,DSutyng,1620,2,2,98,13.0311884,77.5753526
Super built-up  Area,Ready To Move,Harlur,3 BHK,SrEndPo,2450,2,2,120,12.9058923,77.675465
Super built-up  Area,18-May,Electronic City Phase II,3 BHK,Sryalan,1220,2,3,35.23,12.8463512,77.6690975
Super built-up  Area,Ready To Move,Defence Colony,2 BHK,Vantspa,1150,2,3,126,12.976171,77.6435315
Super built-up  Area,18-Dec,Hebbal,3 BHK,Mahosya,1760,2,1,130,13.0382184,77.5919
Super built-up  Area,Ready To Move,Amruthahalli,2 BHK,Prowsi ,900,2,1,40,13.0688336,77.6034132
Super built-up  Area,18-May,Whitefield,2 BHK,SMuilan,1130,4,1,42.16,12.9963995,77.7614229
Super built-up  Area,Ready To Move,Koramangala,2 BHK,Proodt ,1320,5,1,165,12.9357366,77.624081
Super built-up  Area,Ready To Move,Subramanyapura,2 BHK,Prldsri,929,3,1,50.17,12.8963963,77.5377864
Built-up  Area,Ready To Move,RMV 2nd Stage,4 BHK,LiaveEn,1150,7,1,260,13.0360109,77.5695288
Plot  Area,Ready To Move,3rd Block Hrbr Layout,5 BHK,Bemesrm,1200,2,1,190,13.0255533,77.6313982
Super built-up  Area,Ready To Move,Hebbal Kempapura,2 BHK,Vrensn ,1130,3,1,60,13.0514799,77.5933559
Super built-up  Area,Ready To Move,Surabhi Layout,3 BHK,VDdonel,1753,2,1,120,13.0930374,77.6002443
Super built-up  Area,Ready To Move,Old Madras Road,5 BHK,Brica E,4500,2,1,337,13.0082277,77.6941931
Super built-up  Area,22-Jun,Hoodi,2 BHK,GoAirej,1196,2,3,94.42,12.9959233,77.7192796
Built-up  Area,Ready To Move,5th Phase JP Nagar,2 BHK,Prenty ,1150,2,2,52.5,12.91241,77.591056
Super built-up  Area,18-Apr,Electronic City,2 BHK,Prarkun,1128,2,2,63,12.8487599,77.648253
Super built-up  Area,Ready To Move,Omkar Nagar,2 BHK,Shinei ,1000,3,1,53,12.89,77.5973052
Super built-up  Area,Ready To Move,Yelahanka,2 BHK,Apows M,1035,3,1,45,13.1006982,77.5963454
Super built-up  Area,Ready To Move,Whitefield,2 BHK,SVineun,1040,2,1,48.5,12.9963995,77.7614229
Super built-up  Area,Ready To Move,Lingadheeranahalli,3 BHK,Soiewre,1511,2,1,95,13.0026688,77.4915418
Super built-up  Area,19-Dec,Hoodi,3 BHK,Caycend,1545,2,1,68.75,12.9959233,77.7192796
Super built-up  Area,Ready To Move,JP Nagar,2 BHK,DSvvyx ,1000,5,2,35,12.9096941,77.5866067
Super built-up  Area,17-May,Kambipura,2 BHK,Prrtht ,883,2,1,45,12.882271,77.4606466
Super built-up  Area,19-Apr,Sarjapur  Road,2 BHK,Brareio,1195,3,1,70,12.9239386,77.6396966
Super built-up  Area,Ready To Move,Vittasandra,2 BHK,Prlla C,1246,2,1,67,12.8654221,77.6295788
Super built-up  Area,18-Dec,Haralur Road,4 BHK,SNnia E,2805,6,2,154,12.9018012,77.6641767
Super built-up  Area,18-Apr,Electronic City,3 BHK,Prarkun,1599,3,1,125,12.8487599,77.648253
Super built-up  Area,Ready To Move,Whitefield,2 BHK,SuMTBPr,1150,2,1,70,12.9963995,77.7614229
Super built-up  Area,17-Dec,Jakkur,4 BHK,Lecco C,5230,2,2,465,13.0784743,77.6068938
Super built-up  Area,Ready To Move,KR Puram,2 BHK,Jahidva,1155,2,0,42.74,13.007516,77.695935
Built-up  Area,Ready To Move,Rajiv Nagar,3 BHK,PuoodSk,1867,2,2,160,13.0189644,77.5443026
Super built-up  Area,18-Jun,Ramagondanahalli,2 BHK,ViistLa,1251,4,2,47,12.9558969,77.7405826
Super built-up  Area,18-Apr,Gattahalli,2 BHK,Arano M,1028,2,2,45.5,12.8685628,77.7026913
Super built-up  Area,Ready To Move,Arekere,2 BHK,Amngsag,1222,2,1,45,12.8872086,77.5960493
Super built-up  Area,Ready To Move,Bannerghatta Road,3 BHK,SNity S,1170,9,1,66,12.9504037,77.6033713
Super built-up  Area,Ready To Move,Hebbal,3 BHK,Kacesh ,2400,2,1,245,13.0382184,77.5919
Super built-up  Area,Ready To Move,HSR Layout,2 BHK,SrisePo,1372,2,1,68,12.9116225,77.6388622
Super built-up  Area,Ready To Move,Magadi Road,3 BHK,Bilya A,1282,3,1,49,12.975608,77.5553564
Super built-up  Area,Ready To Move,Mico Layout,9 BHK,Amsomun,5000,2,1,210,12.9128289,77.6028358
Super built-up  Area,Ready To Move,Kanakpura Road,2 BHK,Shdhia ,1135,2,1,39.73,12.8856913,77.5526564
Built-up  Area,Ready To Move,Byatarayanapura,3 BHK,Foconna,1325,5,3,90,13.0666526,77.591967
Super built-up  Area,18-Apr,Electronic City,3 BHK,Prarkun,1599,2,2,99,12.8487599,77.648253
Super built-up  Area,Ready To Move,K G Colony,3 BHK,Aincy R,1600,2,3,50,13.0127447,77.6619543
Super built-up  Area,18-Sep,Hennur Road,2 BHK,Shxorm ,1317.5,1,2,63.77,13.0351224,77.631944
Super built-up  Area,Ready To Move,Hebbal,3 BHK,Brium C,3450,2,1,260,13.0382184,77.5919
Super built-up  Area,Ready To Move,Yelahanka,2 BHK,Sahanra,1350,1,1,54,13.1006982,77.5963454
Super built-up  Area,21-Dec,Kanakpura Road,1 BHK,PrarePa,525,3,2,27.25,12.8856913,77.5526564
Built-up  Area,Ready To Move,Attibele,2 BHK,Jae 2hu,656,2,2,25,12.7751249,77.7709216
Super built-up  Area,Ready To Move,3rd Block Hrbr Layout,2 BHK,Icncy R,1056,3,2,80,13.0255533,77.6313982
Super built-up  Area,21-Feb,Bannerghatta Road,1 BHK,Hiatei ,595,3,1,33.32,12.9504037,77.6033713
Super built-up  Area,19-Dec,7th Phase JP Nagar,3 BHK,Puarero,2225,3,1,160,12.9136133,77.595695
Super built-up  Area,18-Aug,Bommasandra,2 BHK,DSoodil,1126,4,1,28.15,13.0544346,77.5593269
Super built-up  Area,Ready To Move,Electronics City Phase 1,3 BHK,GaicaVe,1490,3,2,84,12.8401734,77.6595099
Super built-up  Area,Ready To Move,Sarjapur  Road,3 BHK,PuineSu,1550,2,2,100,12.9239386,77.6396966
Super built-up  Area,Ready To Move,Whitefield,3 BHK,Grare S,1600,4,2,86,12.9963995,77.7614229
Built-up  Area,Ready To Move,Sarjapur  Road,4 BHK,PrOakSi,4144,2,2,315,12.9239386,77.6396966
Super built-up  Area,Ready To Move,Vittasandra,3 BHK,Supleon,2100,2,2,125,12.8654221,77.6295788
Super built-up  Area,Ready To Move,Sarjapur  Road,2 BHK,Prlla C,1404,1,2,69.3,12.9239386,77.6396966
Super built-up  Area,18-May,Marathahalli,3 BHK,Pridsi ,1305,3,1,58.7,12.9552572,77.6984163
Super built-up  Area,Ready To Move,Hormavu,2 BHK,Aahts H,1230,2,1,80,13.016672,77.6548126
Super built-up  Area,19-Dec,Whitefield,1 BHK,Kolisl ,715,2,1,46,12.9963995,77.7614229
Super built-up  Area,Ready To Move,Dooravani Nagar,3 BHK,Toindls,2500,2,1,313,13.0080094,77.6833497
Super built-up  Area,Ready To Move,Jigani,3 BHK,Puceswn,1578,2,1,180,12.7756195,77.6324661
Super built-up  Area,Ready To Move,Koramangala,2 BHK,i1odsne,1020,3,1,40,12.9357366,77.624081
Super built-up  Area,Ready To Move,JCR Layout,2 BHK,Ansna K,1253,2,2,102,12.933134,77.7043284
Super built-up  Area,Ready To Move,Nehru Nagar,2 BHK,ARnamru,1180,3,2,42,12.9869634,77.5755584
Super built-up  Area,Ready To Move,Harlur,2 BHK,Veyalin,961,3,1,38,12.9058923,77.675465
Super built-up  Area,Ready To Move,Sneha Colony,3 BHK,SomonCi,1709,2,3,150,13.00975,77.6568
Super built-up  Area,Ready To Move,RMV Extension,2 BHK,Daill S,1260,3,3,45,13.0356488,77.574775
Built-up  Area,Ready To Move,Sarjapur  Road,3 BHK,DSureSi,1630,1,1,85,12.9239386,77.6396966
Super built-up  Area,19-May,Kalena Agrahara,3 BHK,Soini T,1249,2,2,44.71,12.8658068,77.5911918
Super built-up  Area,Ready To Move,Konanakunte,3 BHK,MancyRe,1450,2,2,85,12.8792861,77.5697529
Super built-up  Area,17-Nov,Ashwini layout,3 BHK,Prasa W,2791,2,2,223,12.9396583,77.6288969
Built-up  Area,Ready To Move,Gottigere,1 BHK,Kaantth,834,2,0,60,12.8565317,77.5877237
Built-up  Area,Ready To Move,Raja Rajeshwari Nagar,2 BHK,Drente ,891,3,3,25,12.932582,77.5162034
Built-up  Area,Ready To Move,Raja Rajeshwari Nagar,3 BHK,Prityel,1075,1,3,37,12.932582,77.5162034
Super built-up  Area,Ready To Move,Hebbal,2 BHK,SGandea,1090,3,2,42,13.0382184,77.5919
Super built-up  Area,18-Dec,HRBR Layout,3 BHK,Mahosya,1920,3,2,134,13.0204703,77.6241642
Built-up  Area,Ready To Move,Kanakapura,2 BHK,Eline P,1374,2,1,95,12.875978,77.5441292
Super built-up  Area,19-Dec,Tumkur Road,1 BHK,GoityEt,711,3,1,36,13.0184718,77.5577542
Super built-up  Area,Ready To Move,Whitefield,3 BHK,SosonGa,1500,3,1,95,12.9963995,77.7614229
Super built-up  Area,Ready To Move,Mysore Road,3 BHK,Gotis A,1720,2,1,100,12.9466619,77.5300896
Super built-up  Area,Ready To Move,Hosahalli,2 BHK,PrntaEn,1200,1,2,85,12.9690686,77.5427797
Carpet  Area,18-Jul,Jalahalli,3 BHK,NSezeBr,1375,4,2,70,13.0394104,77.5197351
Super built-up  Area,Ready To Move,Bellandur,3 BHK,Tahtsla,2250,2,1,160,12.9361208,77.6671843
Super built-up  Area,Ready To Move,Jalahalli West,2 BHK,Sronda ,1000,2,0,50,13.0533332,77.5306036
Super built-up  Area,Ready To Move,Marathahalli,1 BHK,Prntsax,469,5,1,25,12.9552572,77.6984163
Super built-up  Area,Ready To Move,Kambipura,4 BHK,PueraRi,3800,1,1,250,12.882271,77.4606466
Super built-up  Area,Ready To Move,GM Palaya,2 BHK,Prrtht ,883,3,2,29,12.974779,77.6654084
Super built-up  Area,Ready To Move,Malleshwaram,3 BHK,Chnts A,1820,2,2,86,13.0027353,77.5703253
Built-up  Area,Ready To Move,Jalahalli East,4 BHK,GaityEt,2500,3,2,325,13.0578317,77.5462216
Super built-up  Area,Ready To Move,Hosakerehalli,1 BHK,ShshaSa,750,2,0,40,12.9301881,77.5378332
Super built-up  Area,Ready To Move,Sarjapur,3 BHK,Taonte ,2378,3,3,262,12.9116225,77.6388622
Super built-up  Area,Ready To Move,Hebbal,2 BHK,Ahownve,1128,5,2,60,13.0382184,77.5919
Super built-up  Area,Ready To Move,Kanakpura Road,3 BHK,Cevely ,1500,3,2,150,12.8856913,77.5526564
Super built-up  Area,20-Oct,Bommasandra,3 BHK,PrarePa,1100,2,1,58,13.0544346,77.5593269
Super built-up  Area,Ready To Move,Haralur Road,3 BHK,Vaodspe,1200,2,1,46,12.9018012,77.6641767
Built-up  Area,18-Mar,Nagondanahalli,4 BHK,SNnia E,3385,2,2,260,12.97516,77.7703403
Super built-up  Area,Ready To Move,Raja Rajeshwari Nagar,3 BHK,DSldsen,1641,2,3,66,12.932582,77.5162034
Super built-up  Area,Ready To Move,Yelahanka,2 BHK,NaonySy,1260,3,2,67.39,13.1006982,77.5963454
Super built-up  Area,Ready To Move,Yelahanka,2 BHK,Rarthne,1132.5,2,1,48.13,13.1006982,77.5963454
Super built-up  Area,Ready To Move,Thanisandra,3 BHK,Prityel,1075,4,1,45,13.054713,77.6339258
Built-up  Area,Ready To Move,Shanthala Nagar,3 BHK,Soitya ,1702,3,1,130,12.9714173,77.5994394
Super built-up  Area,Ready To Move,Raja Rajeshwari Nagar,2 BHK,Malex C,1630,3,1,200,12.932582,77.5162034
Super built-up  Area,Ready To Move,JP Nagar,2 BHK,GrrvaGr,1141,3,2,38.55,12.9096941,77.5866067
Built-up  Area,18-Mar,Yelahanka,4 BHK,Toainnt,4046,3,1,445,13.1006982,77.5963454
Built-up  Area,Ready To Move,Ambedkar Colony,3 BHK,Edreelm,35000,3,2,130,12.9708334,77.6951966
Super built-up  Area,Ready To Move,Brookefield,3 BHK,RMcesa ,1875,4,3,165,12.9652094,77.717936
Plot  Area,Ready To Move,Whitefield,3 BHK,Krreera,1200,3,2,140,12.9963995,77.7614229
Super built-up  Area,Ready To Move,Lingadheeranahalli,2 BHK,PaantPl,1140,2,2,56,13.0026688,77.4915418
Super built-up  Area,Ready To Move,Kaggadasapura,3 BHK,Soiewre,1683,3,2,109,12.9846713,77.6790908
Super built-up  Area,Ready To Move,Hoodi,3 BHK,Golmsoy,1515,2,1,83.3,12.9959233,77.7192796
Super built-up  Area,19-Dec,Avalahalli,4 BHK,Caycend,2118,2,1,111,12.9437456,77.5402044
Built-up  Area,Ready To Move,Prakruthi Nagar,3 BHK,Sohea A,2300,2,1,120,13.0978966,77.6157367
Super built-up  Area,Ready To Move,Surabhi Layout,2 BHK,MSvelek,1240,2,2,60,13.0930374,77.6002443
Super built-up  Area,Ready To Move,Abbigere,3 BHK,VDdonel,1750,2,2,120,13.0742739,77.5288653
Super built-up  Area,Ready To Move,Tindlu,2 BHK,SLtias ,985,2,1,40.39,13.2338969,77.5947061
Plot  Area,Ready To Move,Maruthi Sevanagar,3 BHK,Hentye ,1500,2,2,87,13.0027048,77.6346165
Built-up  Area,Ready To Move,JP Nagar,2 BHK,SMikaay,950,3,1,44,12.9096941,77.5866067
Super built-up  Area,18-Dec,Electronic City Phase II,5 BHK,Pehtsa ,5600,2,3,548.5,12.8463512,77.6690975
Built-up  Area,18-Jul,Kammasandra,2 BHK,Sryalan,1090,4,1,28.34,13.079198,77.7136366
Super built-up  Area,18-Apr,Green Garden Layout,2 BHK,Prony S,810,3,1,24.5,12.8727237,77.6451233
Super built-up  Area,Ready To Move,Hebbal,2 BHK,PaisePa,1045,2,2,45,13.0382184,77.5919
Super built-up  Area,18-Sep,Koramangala,2 BHK,Arcia S,1337,2,1,82,12.9357366,77.624081
Super built-up  Area,Ready To Move,Begur Road,3 BHK,TealeRo,1580,3,1,160,12.8856188,77.6252418
Super built-up  Area,Ready To Move,Whitefield,3 BHK,Dhalsh ,1500,2,3,54,12.9963995,77.7614229
Super built-up  Area,18-Sep,Silver Springs Layout,3 BHK,Umods W,1640,2,2,91,12.9582324,77.7098778
Super built-up  Area,Ready To Move,Gubbalala,3 BHK,SSarlPe,1570,2,2,62,12.8856635,77.5416809
Super built-up  Area,Ready To Move,7th Phase JP Nagar,3 BHK,MauilTr,1470,3,3,82,12.9136133,77.595695
Built-up  Area,Ready To Move,Dairy Circle,2 BHK,Brnia G,1050,2,0,71,12.9356855,77.6012737
Super built-up  Area,20-Jun,Bannerghatta Road,3 BHK,Soeurri,1855,2,1,225,12.9504037,77.6033713
Super built-up  Area,Ready To Move,Electronic City,3 BHK,SNity S,1460,2,2,90,12.8487599,77.648253
Super built-up  Area,Ready To Move,Budigere,2 BHK,Daives ,1094,3,2,42,13.1351506,77.7471989
Built-up  Area,Ready To Move,Jakkur,3 BHK,PNncysi,1325,2,0,57,13.0784743,77.6068938
Built-up  Area,Ready To Move,Narayana Nagar 1st Block,3 BHK,Socon Z,1590,2,2,125,12.9096941,77.5866067
Super built-up  Area,Ready To Move,KSRTC Layout,2 BHK,Krite D,1202,5,2,48,12.9128386,77.5934931
Super built-up  Area,Ready To Move,Panathur,2 BHK,Srisei ,1200,2,1,62.5,12.9351457,77.7047541
Super built-up  Area,18-Feb,Kaval Byrasandra,3 BHK,Prcesvy,1688,3,3,118,13.0200235,77.6092887
Built-up  Area,Ready To Move,Sarjapur,2 BHK,Soestrn,1020,2,0,52,12.9116225,77.6388622
Super built-up  Area,Ready To Move,Ramagondanahalli,2 BHK,Coa 3t ,1185,2,1,47,12.9558969,77.7405826
Super built-up  Area,17-Oct,Hosakerehalli,2 BHK,ViistLa,1235,2,1,52.04,12.9301881,77.5378332
Super built-up  Area,Ready To Move,Kengeri Satellite Town,4 BHK,Taonte ,3205,2,2,500,12.9229728,77.4842926
Super built-up  Area,Ready To Move,EPIP Zone,3 BHK,MB-laan,1415,5,1,66,12.9781922,77.7246451
Super built-up  Area,18-Apr,Whitefield,3 BHK,BrontLa,2330,4,1,162,12.9963995,77.7614229
Super built-up  Area,Ready To Move,Whitefield,2 BHK,JahanSa,805,2,1,35,12.9963995,77.7614229
Super built-up  Area,Ready To Move,New Gurappana Palya,2 BHK,DNlleks,1155,4,0,59.95,12.9242342,77.6041393
Built-up  Area,Ready To Move,Ambedkar Colony,2 BHK,Alncy R,1100,2,2,48,12.9708334,77.6951966
Super built-up  Area,Ready To Move,Palanahalli,2 BHK,RMcesa ,1468,3,2,140,13.1160811,77.6168047
Plot  Area,Ready To Move,Whitefield,4 BHK,RMaanSa,4300,2,2,550,12.9963995,77.7614229
Super built-up  Area,18-Dec,Hegde Nagar,3 BHK,Prtates,2280,2,2,126,13.0720352,77.6333905
Super built-up  Area,Ready To Move,Electronic City Phase II,2 BHK,Soiniy ,1341,2,1,97,12.8463512,77.6690975
Super built-up  Area,18-Dec,Thanisandra,4 BHK,SNbay G,2225,1,1,98.88,13.054713,77.6339258
Super built-up  Area,Ready To Move,Kudlu,3 BHK,VMianri,1750,2,0,85,12.8889126,77.6555716
Super built-up  Area,Ready To Move,Hulimavu,2 BHK,GKityel,1152,2,3,53.5,12.8773486,77.6028031
Super built-up  Area,Ready To Move,Uttarahalli,2 BHK,Jaise P,1300,2,0,36,12.9055682,77.5455438
Super built-up  Area,Ready To Move,Yeshwanthpur,2 BHK,Siayayo,1101,2,2,45,13.0176937,77.5555009
Super built-up  Area,Ready To Move,Electronic City,1 BHK,IBityin,667,2,1,36.85,12.8487599,77.648253
Super built-up  Area,Ready To Move,Old Airport Road,2 BHK,GMown E,1070,3,1,55,12.9572062,77.6741501
Built-up  Area,Ready To Move,Kundalahalli,3 BHK,Trnce A,1875,2,2,110,12.977594,77.7155586
Super built-up  Area,Ready To Move,Marathahalli,2 BHK,Dieldli,735,3,2,57.99,12.9552572,77.6984163
Super built-up  Area,Ready To Move,Banashankari Stage VI,2 BHK,Prodsth,820,3,1,30,12.8849238,77.5154846
Super built-up  Area,20-Dec,Battarahalli,2 BHK,Brens7 ,1177.5,2,2,59.935,13.011473,77.7099343
Super built-up  Area,Ready To Move,HMT Layout,3 BHK,PaontWa,1779,2,2,89.61,13.03553,77.5027084
Built-up  Area,Ready To Move,Whitefield,2 BHK,HMRWAyo,1105,1,2,58,12.9963995,77.7614229
Super built-up  Area,Ready To Move,Jalahalli,3 BHK,UKkente,1650,7,1,60,13.0394104,77.5197351
Super built-up  Area,Ready To Move,Hosakerehalli,2 BHK,Tahtsla,1694,3,1,150,12.9301881,77.5378332
Super built-up  Area,Ready To Move,Kammasandra,3 BHK,Taonte ,2376,2,0,203,13.079198,77.7136366
Super built-up  Area,Ready To Move,Kaggadasapura,2 BHK,Icingpy,674,3,3,33,12.9846713,77.6790908
Super built-up  Area,Ready To Move, Thanisandra,2 BHK,SLireap,1185,2,3,41,13.054713,77.6339258
Super built-up  Area,Ready To Move,Mylasandra,1 BHK,Bhmesy ,445,2,1,28,12.9081751,77.4928309
Built-up  Area,Ready To Move,Gottigere,6 BHK,VaitySe,900,2,1,76,12.8565317,77.5877237
Super built-up  Area,Ready To Move,Koramangala,3 BHK,Sklls C,1618,2,2,82.5,12.9357366,77.624081
Super built-up  Area,Ready To Move,Marathahalli,2 BHK,Vaanda ,1120,2,2,65,12.9552572,77.6984163
Super built-up  Area,Ready To Move,Bannerghatta Road,4 BHK,Sutte C,2181,2,1,152,12.9504037,77.6033713
Super built-up  Area,18-Oct,Bannerghatta Road,3 BHK,DSnjh S,1556,2,1,59.13,12.9504037,77.6033713
Super built-up  Area,19-Feb,Thanisandra,2 BHK,Hiatei ,1179,3,3,66.02,13.054713,77.6339258
Super built-up  Area,Ready To Move,Kaggadasapura,2 BHK,Bhmesy ,1296,3,1,83,12.9846713,77.6790908
Built-up  Area,Ready To Move,Gottigere,2 BHK,VSomepi,1275,2,3,52,12.8565317,77.5877237
Super built-up  Area,Ready To Move,Electronic City,2 BHK,Krryll ,1222,2,0,63,12.8487599,77.648253
Super built-up  Area,Ready To Move,Thanisandra,2 BHK,Palleon,940,2,2,41,13.054713,77.6339258
Super built-up  Area,Ready To Move,Tumkur Road,2 BHK,MenueNo,1185,3,2,42.6,13.0184718,77.5577542
Super built-up  Area,Ready To Move,Begur Road,3 BHK,Soite E,1779,4,1,112,12.8856188,77.6252418
Super built-up  Area,Ready To Move,JP Nagar,3 BHK,Dhalsh ,1615,2,1,59.76,12.9096941,77.5866067
Super built-up  Area,18-Dec,Haralur Road,4 BHK,Pehtsa ,4624.5,2,1,453,12.9018012,77.6641767
Super built-up  Area,Ready To Move,Arekere,2 BHK,Zostaa ,1056,2,2,61,12.8872086,77.5960493
Built-up  Area,Ready To Move,ITI Layout,2 BHK,Prdowth,920,1,1,40,13.004908,77.6046672
Super built-up  Area,Ready To Move,Kasavanhalli,3 BHK,BMityre,1602,2,2,75,12.9047595,77.6759172
Super built-up  Area,18-Jul,Vittasandra,4 BHK,Rosha I,2119,3,1,111,12.8654221,77.6295788
Super built-up  Area,Ready To Move,Anandapura,2 BHK,Prlla C,1246,2,2,67.3,13.0239276,77.6923621
Super built-up  Area,17-Jul,Chandapura,2 BHK,ViensRK,1141,4,2,42.79,12.8009043,77.7114908
Super built-up  Area,18-Aug,Yelahanka New Town,2 BHK,SuVue S,1025,4,0,27.68,13.0978039,77.5811889
Built-up  Area,Ready To Move,Hebbal,1 BHK,KHatsFl,650,3,2,33,13.0382184,77.5919
Super built-up  Area,Ready To Move,Narayanapura,2 BHK,Prersis,1349,3,2,98,13.0716969,77.6193949
Super built-up  Area,Ready To Move,Sahakara Nagar,3 BHK,Veodsar,1566,1,1,83.3,13.0621474,77.5800614
Super built-up  Area,Ready To Move,Varthur,4 BHK,OsrdsOr,2830,2,2,195,12.9406508,77.746988
Super built-up  Area,Ready To Move,Rachenahalli,2 BHK,Hirio L,1091,2,2,34.9,13.0588586,77.6232576
Super built-up  Area,Ready To Move,Yeshwanthpur,4 BHK,Leino C,3670,2,1,300,13.0176937,77.5555009
Super built-up  Area,20-Dec,Yelahanka,4 BHK,Detat H,1950,2,1,130,13.1006982,77.5963454
Super built-up  Area,Ready To Move,Kalyan nagar,3 BHK,Shana S,1705,2,2,95,13.0221416,77.6403368
Built-up  Area,Ready To Move,Kanakpura Road,3 BHK,Disical,1375,2,1,75,12.8856913,77.5526564
Super built-up  Area,21-Oct,Thanisandra,1 BHK,PrarePa,525,2,1,30,13.054713,77.6339258
Super built-up  Area,Ready To Move,7th Phase JP Nagar,2 BHK,SLaceda,1114,3,0,39,12.9136133,77.595695
Super built-up  Area,Ready To Move,Hebbal,3 BHK,Brsiaen,1450,3,1,100,13.0382184,77.5919
Built-up  Area,Ready To Move,Electronic City,2 BHK,Ratlet ,1000,2,1,45,12.8487599,77.648253
Super built-up  Area,18-Apr,Kanakpura Road,2 BHK,Prarkun,1128,3,2,68.75,12.8856913,77.5526564
Super built-up  Area,18-May,Kanakpura Road,2 BHK,Wiowsri,1180,3,1,57,12.8856913,77.5526564
Super built-up  Area,Ready To Move,7th Phase JP Nagar,2 BHK,PuandHi,1339,2,2,75,12.9136133,77.595695
Super built-up  Area,Ready To Move,Sarjapur  Road,2 BHK,SrncyRe,1040,3,0,39.52,12.9239386,77.6396966
Super built-up  Area,Ready To Move,Bannerghatta Road,3 BHK,Prityel,1075,2,1,36,12.9504037,77.6033713
Super built-up  Area,22-Dec,Mallasandra,2 BHK,PrarePa,1122.5,2,2,58.935,13.0569525,77.5209467
Super built-up  Area,Ready To Move,Marathahalli,3 BHK,Puestig,1665,2,0,86.58,12.9552572,77.6984163
Built-up  Area,Ready To Move,Brookefield,3 BHK,Bintsee,2489,2,0,94,12.9652094,77.717936
Super built-up  Area,Ready To Move,Sathya Sai Layout,3 BHK,Diacee ,1976,2,1,184,12.989889,77.7186215
Plot  Area,Ready To Move,Electronics City Phase 1,4 BHK,Prowshi,5500,2,3,600,12.8401734,77.6595099
Super built-up  Area,Ready To Move,Subramanyapura,2 BHK,Shitt S,1175,3,1,51.47,12.8963963,77.5377864
Built-up  Area,Ready To Move,Kodichikkanahalli,2 BHK,DSagax ,1200,2,3,52,12.8966996,77.6124269
Built-up  Area,Ready To Move,Magadi Road,2 BHK,Prs 2hi,995,2,1,41,12.975608,77.5553564
Super built-up  Area,Ready To Move,Yeshwanthpur,2 BHK,Vrenty ,884,4,2,41.1,13.0176937,77.5555009
Built-up  Area,Ready To Move,KR Puram,2 BHK,IBityin,1170,2,1,57,13.007516,77.695935
Super built-up  Area,Ready To Move,Electronic City,2 BHK,LVniaar,1225,2,2,46.55,12.8487599,77.648253
Built-up  Area,Ready To Move,Raja Rajeshwari Nagar,3 BHK,Shyas S,1320,2,1,65,12.932582,77.5162034
Super built-up  Area,Ready To Move,Battarahalli,2 BHK,GrrvaGr,1140,1,1,49.39,13.011473,77.7099343
Super built-up  Area,Ready To Move,Thigalarapalya,2 BHK,Sancy L,1300,3,1,50,13.0170955,77.4829741
Super built-up  Area,Ready To Move,Electronic City,3 BHK,Prtanha,2072,3,0,142,12.8487599,77.648253
Super built-up  Area,Ready To Move,Hosur Road,3 BHK,GMown E,1360,1,2,71,12.9193621,77.6214458
Super built-up  Area,Ready To Move,Uttarahalli,3 BHK,Sueneu ,1145,2,3,60,12.9055682,77.5455438
Built-up  Area,Ready To Move,Sarjapur  Road,3 BHK,Laihai ,1540,2,2,40,12.9239386,77.6396966
Super built-up  Area,Ready To Move,Electronic City Phase II,2 BHK,Adeatlm,1278,2,1,95,12.8463512,77.6690975
Super built-up  Area,18-May,Kanakpura Road,1 BHK,SNbay G,630,2,2,40,12.8856913,77.5526564
Super built-up  Area,21-Jan,Bendiganahalli,3 BHK,PrarePa,1100,2,0,58,13.0683794,77.7582582
Plot  Area,Ready To Move,Chandapura,3 BHK,Brersld,1200,2,1,95,12.8009043,77.7114908
Super built-up  Area,18-Jun,Chandapura,1 BHK,SuVue S,582.5,3,2,15.135,12.8009043,77.7114908
Super built-up  Area,18-Sep,Ferrar Nagar,2 BHK,SunceEs,1015,2,2,25.88,13.1164358,77.5642942
Super built-up  Area,Ready To Move,Whitefield,2 BHK,Leton A,1180,3,2,69,12.9963995,77.7614229
Super built-up  Area,Ready To Move,7th Phase JP Nagar,2 BHK,Sonviik,1116,1,3,51.91,12.9136133,77.595695
Super built-up  Area,Ready To Move,Varthur,2 BHK,SrncyRe,1070,3,1,42.79,12.9406508,77.746988
Super built-up  Area,17-Mar,Magadi Road,2 BHK,Uptusol,1385,2,3,80,12.975608,77.5553564
Super built-up  Area,18-Aug,Green Glen Layout,2 BHK,Vrenty ,1005,2,1,55.78,12.9269039,77.6701877
Super built-up  Area,Ready To Move,Subramanyapura,3 BHK,Soinequ,1575,2,1,125,12.8963963,77.5377864
Super built-up  Area,Ready To Move,Hennur Road,2 BHK,Mayne A,975,2,2,65,13.0351224,77.631944
Super built-up  Area,Ready To Move,Kanakpura Road,3 BHK,SaireSa,1904,3,1,120,12.8856913,77.5526564
Super built-up  Area,21-Dec,Electronic City Phase II,1 BHK,PrarePa,525,2,1,26,12.8463512,77.6690975
Plot  Area,Ready To Move,Harlur,2 BHK,Daosts ,2400,3,2,150,12.9058923,77.675465
Super built-up  Area,Ready To Move,Whitefield,2 BHK,Prncyrn,1174,2,2,69,12.9963995,77.7614229
Super built-up  Area,Ready To Move,M.G Road,3 BHK,UKe 2nz,2225,3,0,125,12.9741954,77.6116653
Super built-up  Area,Ready To Move,Jigani,2 BHK,SontsAp,1250,2,1,200,12.7756195,77.6324661
Super built-up  Area,Ready To Move,Sarjapur  Road,2 BHK,DLhtsan,918,2,2,52,12.9239386,77.6396966
Super built-up  Area,Ready To Move,Marathahalli,3 BHK,Maantr ,1800,4,1,110,12.9552572,77.6984163
Built-up  Area,Ready To Move,Jakkur,2 BHK,Foodasa,1170,3,0,53,13.0784743,77.6068938
Super built-up  Area,Ready To Move,Kambipura,3 BHK,BrdgeNo,1710,5,1,107,12.882271,77.4606466
Super built-up  Area,Ready To Move,Horamavu Banaswadi,3 BHK,Prrtht ,1082,4,3,57.5,13.0185287,77.6549166
Super built-up  Area,Ready To Move,Thanisandra,3 BHK,Asorai ,1554,3,3,55,13.054713,77.6339258
Super built-up  Area,18-Dec,Hosa Road,2 BHK,Omter A,1142.5,3,2,43.415,12.8816077,77.6448181
Super built-up  Area,19-Mar,Ambedkar Nagar,2 BHK,Skume R,1045,1,2,98.89,12.9490851,77.6184873
Super built-up  Area,Ready To Move,Hebbal,3 BHK,RothaVa,1680,2,0,150,13.0382184,77.5919
Super built-up  Area,19-Jun,1st Phase JP Nagar,4 BHK,Raard B,2470,2,3,247,12.9150543,77.5988508
Super built-up  Area,Ready To Move,Hosakerehalli,4 BHK,Prhtsok,2825,4,1,250,12.9301881,77.5378332
Super built-up  Area,Ready To Move,Kasavanhalli,3 BHK,Taonte ,2480,5,1,330,12.9047595,77.6759172
Built-up  Area,Ready To Move,Whitefield,3 BHK,Ocrda M,1799,2,1,90,12.9963995,77.7614229
Super built-up  Area,Ready To Move,Attibele,4 BHK,PrOakSi,4348.5,5,0,304,12.7751249,77.7709216
Built-up  Area,Ready To Move,Kundalahalli,1 BHK,Jae 2hu,400,3,1,11,12.977594,77.7155586
Built-up  Area,18-Mar,Kaverappa Layout,2 BHK,Dieldli,1047,3,2,82,12.9907651,77.5945915
Super built-up  Area,Ready To Move,Whitefield,2 BHK,Kesomrn,1282,2,2,87,12.9963995,77.7614229
Super built-up  Area,Ready To Move,Kasavanhalli,2 BHK,UKe 2nz,1495,1,2,79.5,12.9047595,77.6759172
Built-up  Area,Ready To Move,Koramangala,4 BHK,Vaidsi ,3260,1,2,240,12.9357366,77.624081
Super built-up  Area,Ready To Move,Sahakara Nagar,4 BHK,K ncy R,3500,3,1,425,13.0621474,77.5800614
Super built-up  Area,Ready To Move,Yelahanka,3 BHK,EsniaGa,1500,2,2,95,13.1006982,77.5963454
Plot  Area,Ready To Move,Uttarahalli,4 BHK,Aaire S,3206,3,1,270,12.9055682,77.5455438
Super built-up  Area,Ready To Move,Hosa Road,3 BHK,Laihai ,1540,3,2,50,12.8816077,77.6448181
Super built-up  Area,18-May,Raja Rajeshwari Nagar,3 BHK,Pamesy ,1639,3,2,80,12.932582,77.5162034
Super built-up  Area,Ready To Move,Koramangala,2 BHK,GrrvaGr,1303,2,0,55.79,12.9357366,77.624081
Super built-up  Area,Ready To Move,Kammasandra,2 BHK,K ncy R,1005,2,1,110,13.079198,77.7136366
Super built-up  Area,Ready To Move,Chandapura,1 BHK,Puitea ,657.5,2,2,18.41,12.8009043,77.7114908
Super built-up  Area,18-Oct,Brookefield,3 BHK,SunceEs,1305,2,2,33.28,12.9652094,77.717936
Super built-up  Area,Ready To Move,Rajaji Nagar,3 BHK,Saowson,1440,3,1,68,12.9945793,77.5503967
Super built-up  Area,Ready To Move,Varthur,3 BHK,Brway G,1725,2,1,200,12.9406508,77.746988
Super built-up  Area,20-Dec,Haralur Road,3 BHK,Myple M,1535,1,2,65.99,12.9018012,77.6641767
Super built-up  Area,Ready To Move,Devarabisanahalli,3 BHK,NRowse ,1464,1,1,56,12.9234847,77.6869662
Super built-up  Area,Ready To Move,Giri Nagar,2 BHK,Spdoren,1350,2,2,80,12.9168572,77.5860216
Built-up  Area,Ready To Move,Electronics City Phase 1,2 BHK,Spanda ,650,2,1,42,12.8401734,77.6595099
Built-up  Area,Ready To Move,7th Phase JP Nagar,2 BHK,Shelash,950,4,1,31,12.9136133,77.595695
Super built-up  Area,Ready To Move,Hennur Road,2 BHK,Vasta C,1190,3,2,49.98,13.0351224,77.631944
Super built-up  Area,Ready To Move,Hosa Road,3 BHK,SaireSa,1891,2,2,109,12.8816077,77.6448181
Super built-up  Area,18-Jul,Sarjapur,2 BHK,Mahesr ,1161,2,2,55.15,12.9116225,77.6388622
Super built-up  Area,Ready To Move,Yeshwanthpur,1 BHK,DSousyl,649.5,2,1,17.535,13.0176937,77.5555009
Super built-up  Area,Ready To Move,Hoodi,1 BHK,IBityin,665,3,2,36.85,12.9959233,77.7192796
Built-up  Area,Ready To Move,Hegde Nagar,2 BHK,Abeesmi,1255,2,1,67,13.0720352,77.6333905
Super built-up  Area,Ready To Move,Haralur Road,3 BHK,SoisoCa,2112.95,1,3,145,12.9018012,77.6641767
Super built-up  Area,18-Jul,Electronic City Phase II,3 BHK,SNnia E,1810,3,3,100,12.8463512,77.6690975
Built-up  Area,18-Jul,Vidyaranyapura,3 BHK,Sryalan,1400,2,2,40.43,13.0766407,77.5577315
Super built-up  Area,Ready To Move,Pattandur Agrahara,3 BHK,Graceik,1485,2,1,67,12.9876393,77.7377718
Super built-up  Area,Ready To Move,Whitefield,2 BHK,Shvarji,1025,1,2,44.5,12.9963995,77.7614229
Super built-up  Area,Ready To Move,Kanakpura Road,4 BHK,ArsiaEx,2268,2,2,163,12.8856913,77.5526564
Super built-up  Area,Ready To Move,Attibele,2 BHK,VMianri,1141,2,2,62,12.7751249,77.7709216
Built-up  Area,Ready To Move,Kanakpura Road,1 BHK,Jae 1hu,400,2,3,12,12.8856913,77.5526564
Super built-up  Area,Ready To Move,Rachenahalli,3 BHK,Puestol,1843,2,2,95.84,13.0588586,77.6232576
Super built-up  Area,Ready To Move,Vittasandra,3 BHK,Sovar S,1530,2,2,74.5,12.8654221,77.6295788
Super built-up  Area,Ready To Move,Kanakapura,2 BHK,Prlla C,1246,3,0,64.5,12.875978,77.5441292
Super built-up  Area,19-Dec,Haralur Road,1 BHK,GoityEt,711,2,2,38,12.9018012,77.6641767
Super built-up  Area,Ready To Move,Babusapalaya,2 BHK,RInceeg,1194,4,1,46,13.0283523,77.650469
Super built-up  Area,Ready To Move,Hoodi,3 BHK,ARngsd ,1358,3,2,43.4,12.9959233,77.7192796
Super built-up  Area,Ready To Move,Nagappa Reddy Layout,2 BHK,Goeur G,1420,2,2,75,12.9599768,77.7154704
Super built-up  Area,Ready To Move,Panathur,2 BHK,Gruesaf,1209,2,2,50,12.9351457,77.7047541
Super built-up  Area,Ready To Move,TC Palaya,3 BHK,Saite G,1315,2,2,54.8,13.0106104,77.6932665
Super built-up  Area,Ready To Move,Suraksha Nagar,3 BHK,RKncyha,1600,3,2,65,12.9749515,77.6063599
Super built-up  Area,Ready To Move,Whitefield,3 BHK,AritaFe,1563,2,1,52,12.9963995,77.7614229
Super built-up  Area,Ready To Move,Brookefield,3 BHK,SRidePr,1560,2,3,72,12.9652094,77.717936
Super built-up  Area,Ready To Move,HSR Layout,3 BHK,Emine P,3235,4,1,235,12.9116225,77.6388622
Super built-up  Area,Ready To Move,JP Nagar,2 BHK,NRosete,1140,2,2,46,12.9096941,77.5866067
Super built-up  Area,Ready To Move,Hebbal,2 BHK,Saowsri,1100,4,1,70,13.0382184,77.5919
Super built-up  Area,18-Mar,Akshaya Nagar,2 BHK,Arcia S,1036,2,2,50,13.0195427,77.6831272
Built-up  Area,Ready To Move,Yelachenahalli,3 BHK,DLhtsnd,1662,2,2,85.1,12.897971,77.5700846
Super built-up  Area,Ready To Move,Yelahanka,3 BHK,PuontBe,1464,3,2,105,13.1006982,77.5963454
Super built-up  Area,Ready To Move,Sarjapur  Road,2 BHK,NCowsar,1234,3,1,80,12.9239386,77.6396966
Super built-up  Area,Ready To Move,Hebbal,3 BHK,Arldsyo,1403,14,1,55,13.0382184,77.5919
Built-up  Area,Ready To Move,Basava Nagar,4 BHK,RMudeat,3900,3,1,410,12.9854757,77.5887667
Built-up  Area,Ready To Move,Haralur Road,2 BHK,Saarea ,1405,2,2,70,12.9018012,77.6641767
Super built-up  Area,18-Apr,Yeshwanthpur,4 BHK,SNnia E,2805,2,0,154,13.0176937,77.5555009
Super built-up  Area,Ready To Move,Kanakpura Road,2 BHK,IBityin,1161,2,2,64.08,12.8856913,77.5526564
Super built-up  Area,18-Dec,Yeshwanthpur,2 BHK,Soena A,1290,2,1,74,13.0176937,77.5555009
Super built-up  Area,Ready To Move,2nd Block Hrbr Layout,3 BHK,IBityin,2557,4,1,141,13.0255533,77.6313982
Built-up  Area,Ready To Move,BTM 1st Stage,3 BHK,Raaden ,1480,2,2,90,12.9134789,77.6065671
Plot  Area,Ready To Move,Old Madras Road,9 BHK,Srvasks,3300,3,1,500,13.0082277,77.6941931
Super built-up  Area,20-Dec,Kadugodi,3 BHK,SheldGr,1350,2,2,54.54,12.9957428,77.7579489
Super built-up  Area,Ready To Move,Sarjapur  Road,3 BHK,MSingco,1580,2,1,65,12.9239386,77.6396966
Super built-up  Area,18-Sep,Basapura,2 BHK,PualeSk,1346,4,2,61.92,12.8686664,77.6441741
Super built-up  Area,Ready To Move,Channasandra,2 BHK,RMncy R,1200,3,2,35,12.9873426,77.7538033
Built-up  Area,Ready To Move,Devanahalli,3 BHK,Pritehi,1340,2,1,48.33,13.2483502,77.7134377
Plot  Area,Ready To Move,Jigani,4 BHK,Soyleif,6136,2,1,560,12.7756195,77.6324661
Super built-up  Area,Ready To Move,Singena Agrahara,2 BHK,DLhtsan,918,3,1,48,12.8400642,77.7126767
Plot  Area,Ready To Move,Yelahanka,3 BHK,CoiewSy,1500,2,2,115,13.1006982,77.5963454
Super built-up  Area,Ready To Move,Uttarahalli,2 BHK,Velas V,1315,3,3,85,12.9055682,77.5455438
Super built-up  Area,Ready To Move,Jalahalli,3 BHK,Aklia R,1330,2,2,56,13.0394104,77.5197351
Built-up  Area,Ready To Move,Mango Garden Layout,5 BHK,BrardCo,3100,3,3,265,12.8910748,77.5639131
Super built-up  Area,17-Dec,7th Phase JP Nagar,3 BHK,Ceral C,1824,2,2,125,12.9136133,77.595695
Super built-up  Area,Ready To Move,Jalahalli East,3 BHK,Brnia G,1420,2,1,96,13.0578317,77.5462216
Super built-up  Area,Ready To Move,Hennur Road,3 BHK,ShshaSa,1260,3,2,60,13.0351224,77.631944
Super built-up  Area,19-Sep,Haralur Road,3 BHK,Orens G,1561,2,3,95,12.9018012,77.6641767
Super built-up  Area,18-Jul,Thanisandra,2 BHK,SNnia E,1225,3,2,67.38,13.054713,77.6339258
Super built-up  Area,Ready To Move,Electronic City,3 BHK,Soitya ,2144,2,2,135,12.8487599,77.648253
Super built-up  Area,Ready To Move,Hoodi,2 BHK,Itelaa ,880,2,1,29,12.9959233,77.7192796
Super built-up  Area,21-Dec,Thanisandra,3 BHK,GoAirej,1639,2,2,110,13.054713,77.6339258
Built-up  Area,Ready To Move,Haralur Road,3 BHK,Pronyt ,1240,5,1,62,12.9018012,77.6641767
Super built-up  Area,Ready To Move,Marathahalli,2 BHK,RInceeg,1243,2,1,46,12.9552572,77.6984163
Super built-up  Area,Ready To Move,Kambipura,3 BHK,Aiitya ,1575,2,1,78,12.882271,77.4606466
Super built-up  Area,Ready To Move,Kanakpura Road,3 BHK,Prrtht ,1082,2,3,56,12.8856913,77.5526564
Super built-up  Area,Ready To Move,Electronic City,3 BHK,Puestol,1665,2,2,86.58,12.8487599,77.648253
Super built-up  Area,18-Dec,Electronic City,2 BHK,GoontLa,1265,2,3,56.93,12.8487599,77.648253
Super built-up  Area,21-Dec,Thanisandra,3 BHK,KonteiT,1691,2,1,102,13.054713,77.6339258
Super built-up  Area,Ready To Move,Hosakerehalli,2 BHK,SLaceda,1100,3,2,38,12.9301881,77.5378332
Built-up  Area,Ready To Move,Choodasandra,4 BHK,Taonte ,3205,2,1,380,12.8883623,77.6799727
Super built-up  Area,Ready To Move,Mysore Road,2 BHK,GRhtiru,1115,2,1,50,12.9466619,77.5300896
Super built-up  Area,Ready To Move,Indira Nagar,2 BHK,Brama P,1070,2,1,45,12.9732913,77.6404672
Super built-up  Area,Ready To Move,Budigere,2 BHK,Aentsbe,1128,4,1,105,13.1351506,77.7471989
Super built-up  Area,Ready To Move,Sai Gardens,2 BHK,PrityTr,1162,2,1,57,12.9467591,77.6760671
Super built-up  Area,Ready To Move,Mahadevpura,2 BHK,Alivae ,1339,3,3,55,12.9968412,77.6928386
Super built-up  Area,Ready To Move,Haralur Road,2 BHK,Neagar ,1192,2,3,75,12.9018012,77.6641767
Super built-up  Area,Ready To Move,Hennur,3 BHK,DSimaUl,1920,2,1,115,13.037077,77.6413572
Super built-up  Area,Ready To Move,Rajaji Nagar,2 BHK,Shateor,1255,3,0,52.32,12.9945793,77.5503967
Super built-up  Area,18-Apr,Hanumanth Nagar,2 BHK,ProdsWe,1357,3,1,115,12.9473478,77.5634776
Super built-up  Area,Ready To Move,Whitefield,2 BHK,Saersel,1225,4,2,55.11,12.9963995,77.7614229
Plot  Area,Ready To Move,Thanisandra,4 BHK,Saark H,2400,2,2,200,13.054713,77.6339258
Super built-up  Area,Ready To Move,Basaveshwara Nagar,2 BHK,Bhmesy ,1093,2,2,70,12.9911804,77.5448918
Built-up  Area,Ready To Move,Kaikondrahalli,3 BHK,Suncy R,1865,3,3,145,12.9138348,77.6775268
Super built-up  Area,Ready To Move,Vittasandra,2 BHK,Srsica ,1039,2,1,80,12.8654221,77.6295788
Super built-up  Area,Ready To Move,Whitefield,2 BHK,Prlla C,1246,2,0,64.5,12.9963995,77.7614229
Super built-up  Area,Ready To Move,Hosakerehalli,3 BHK,Suent V,1985,2,0,75,12.9301881,77.5378332
Super built-up  Area,Ready To Move,Hunasamaranahalli,3 BHK,APncyla,1590,5,1,49,13.1398614,77.6230512
Plot  Area,Ready To Move,Electronic City Phase II,4 BHK,EmardBo,4000,2,1,675,12.8463512,77.6690975
Super built-up  Area,Ready To Move,Hebbal Kempapura,2 BHK,PancyRe,1000,2,0,50,13.0514799,77.5933559
Super built-up  Area,Ready To Move,Bommasandra,3 BHK,Goateds,1800,3,2,175,13.0544346,77.5593269
Super built-up  Area,18-Jun,Dasarahalli,2 BHK,SSestth,1035,2,0,41,12.9784134,77.5427194
Super built-up  Area,Ready To Move,Whitefield,3 BHK,Syonyph,1520,2,2,75,12.9963995,77.7614229
Super built-up  Area,Ready To Move,Bileshivale,2 BHK,BrlisCo,1360,2,2,95,13.0543306,77.6710224
Super built-up  Area,Ready To Move,KR Puram,2 BHK,Shyas S,1117,2,2,56,13.007516,77.695935
Plot  Area,Ready To Move,EPIP Zone,4 BHK,Esnamin,1200,3,1,120,12.9781922,77.7246451
Super built-up  Area,Ready To Move,Marathahalli,2 BHK,BrontLa,1330,3,1,92.5,12.9552572,77.6984163
Super built-up  Area,Ready To Move,Electronic City,3 BHK,Prionad,1937,2,2,160,12.8487599,77.648253
Super built-up  Area,18-Aug,Neeladri Nagar,2 BHK,Prarkun,1128,1,3,65.49,12.8414612,77.6479661
Super built-up  Area,Ready To Move,Panathur,2 BHK,NatisAt,1053,2,1,45,12.9351457,77.7047541
Super built-up  Area,18-May,Marathahalli,2 BHK,Prcesvy,1198,2,1,77,12.9552572,77.6984163
Super built-up  Area,18-Apr,Frazer Town,2 BHK,Spows M,1152,3,2,56,12.9975851,77.6136744
Super built-up  Area,Ready To Move,Kundalahalli,2 BHK,Maentr ,1625,3,3,75,12.977594,77.7155586
Super built-up  Area,Ready To Move,Yeshwanthpur,3 BHK,Dieldli,1397,3,2,105,13.0176937,77.5555009
Super built-up  Area,Ready To Move,Kambipura,3 BHK,Saade E,1523,2,2,170,12.882271,77.4606466
Super built-up  Area,Ready To Move,Kaggalipura,2 BHK,Prrtht ,883,3,2,45,12.8089587,77.5097006
Super built-up  Area,Ready To Move,Yelahanka,1 BHK,Baowsig,700,1,2,38,13.1006982,77.5963454
Super built-up  Area,Ready To Move,Kanakpura Road,2 BHK,Neite T,1170,1,1,62.5,12.8856913,77.5526564
Super built-up  Area,Ready To Move,Akshaya Nagar,3 BHK,Shiew T,1200,2,1,42,13.0195427,77.6831272
Super built-up  Area,Ready To Move,Haralur Road,3 BHK,DLhtsnd,1897,2,2,120,12.9018012,77.6641767
Super built-up  Area,18-May,Jaya Nagar East,3 BHK,SNnia E,1875,2,2,110,13.0203531,77.6634987
Super built-up  Area,Ready To Move,Ambalipura,3 BHK,Maens G,3095,5,0,350,12.9173303,77.667161
Super built-up  Area,Ready To Move,Yelahanka,3 BHK,SJarkte,1390,2,3,175,13.1006982,77.5963454
Super built-up  Area,20-Dec,Yelahanka,3 BHK,Un 46th,1450,2,3,65.255,13.1006982,77.5963454
Super built-up  Area,17-Nov,Sarjapur  Road,1 BHK,Prensya,697,3,0,45,12.9239386,77.6396966
Built-up  Area,Ready To Move,Iggalur,1 BHK,Shthi S,710,2,2,27,12.781144,77.7014486
Carpet  Area,Ready To Move,Sompura,2 BHK,VaoldMa,910,2,2,30.5,12.8778283,77.4972385
Built-up  Area,Ready To Move,Magadi Road,3 BHK,Suiseit,1025,2,1,48,12.975608,77.5553564
Super built-up  Area,18-Aug,Sarjapur  Road,2 BHK,Vrenty ,1000,2,1,46.5,12.9239386,77.6396966
Super built-up  Area,Ready To Move,Thanisandra,4 BHK,Adeatlm,3335,3,2,300,13.054713,77.6339258
Super built-up  Area,18-Mar,Varthur,2 BHK,SLityee,971.5,2,1,36.435,12.9406508,77.746988
Built-up  Area,Ready To Move,Electronic City,2 BHK,DSingSt,1024,2,1,42,12.8487599,77.648253
Built-up  Area,Ready To Move,Whitefield,3 BHK,Suashen,1620,2,2,62,12.9963995,77.7614229
Super built-up  Area,Ready To Move,Banashankari,2 BHK,SSthamh,1254,6,2,40,12.9278196,77.556621
Built-up  Area,Ready To Move,Hosur Road,3 BHK,Skave E,1300,3,1,75,12.9193621,77.6214458
Super built-up  Area,18-Oct,Kaggalipura,3 BHK,PuendWe,1510,3,1,105,12.8089587,77.5097006
Super built-up  Area,Ready To Move,Battarahalli,2 BHK,Baowsig,950,2,2,65,13.011473,77.7099343
Super built-up  Area,Ready To Move,Uttarahalli,3 BHK,PaontWa,1945,2,2,97.42,12.9055682,77.5455438
Super built-up  Area,Ready To Move,Thanisandra,2 BHK,Shierhi,1008,3,3,45,13.054713,77.6339258
Super built-up  Area,Ready To Move,Hebbal,3 BHK,Bhmesy ,1265,3,1,79,13.0382184,77.5919
Super built-up  Area,19-Dec,Kanakpura Road,3 BHK,Magiaya,1255,2,3,77.68,12.8856913,77.5526564
Built-up  Area,18-Dec,Sarjapur  Road,4 BHK,PrityFa,2689,2,3,220,12.9239386,77.6396966
Super built-up  Area,19-Dec,Kudlu Gate,3 BHK,Daivon ,1403,3,1,51.63,12.8899174,77.6396808
Super built-up  Area,Ready To Move,Chamrajpet,3 BHK,Srier P,1535,2,2,85,12.9584184,77.5629161
Super built-up  Area,Ready To Move,Whitefield,2 BHK,AbnceEs,1133,2,1,55,12.9963995,77.7614229
Super built-up  Area,18-Dec,Vasanth nagar,3 BHK,Prtates,1697,4,1,94.79,12.9921738,77.591459
Super built-up  Area,Ready To Move,Hennur Road,3 BHK,Siace P,1560,3,2,188,13.0351224,77.631944
Super built-up  Area,17-Apr,Kasavanhalli,3 BHK,Koagati,1192,3,2,60,12.9047595,77.6759172
Super built-up  Area,Ready To Move,7th Phase JP Nagar,2 BHK,Salisal,1349,1,2,78,12.9136133,77.595695
Super built-up  Area,Ready To Move,Kalyan nagar,3 BHK,Eladero,1680,1,2,120,13.0221416,77.6403368
Built-up  Area,Ready To Move,Whitefield,2 BHK,SLnorMa,820,3,2,39,12.9963995,77.7614229
Plot  Area,Ready To Move,Kalkere,4 BHK,Skensk ,5000,2,1,400,13.0350897,77.6738079
Super built-up  Area,Ready To Move,Rajaji Nagar,2 BHK,Sothin ,856,4,2,40,12.9945793,77.5503967
Super built-up  Area,18-Feb,Bannerghatta Road,3 BHK,Puwerun,1621,3,1,130,12.9504037,77.6033713
Super built-up  Area,Ready To Move,Siddapura,3 BHK,TGjraVa,1484,3,3,52.5,12.9464207,77.5920877
Plot  Area,Ready To Move,Yelahanka New Town,4 BHK,Apavea ,14000,2,2,800,13.0978039,77.5811889
Super built-up  Area,Ready To Move,Electronic City,1 BHK,KHatsFl,500,2,2,20,12.8487599,77.648253
Built-up  Area,Ready To Move,Uttarahalli,3 BHK,PancyRe,1384,2,0,62.28,12.9055682,77.5455438
Built-up  Area,Ready To Move,Kaggadasapura,2 BHK,Sungsha,1150,2,1,49,12.9846713,77.6790908
Built-up  Area,Ready To Move,Malleshwaram,4 BHK,Adsia F,2150,4,1,100,13.0027353,77.5703253
Built-up  Area,Ready To Move,Maragondanahalli,3 BHK,Maens G,2006,4,1,297,13.0376489,77.6922232
Built-up  Area,Ready To Move,Ramamurthy Nagar,3 BHK,ArnzaFi,1508,5,2,70.25,13.0120218,77.6777817
Built-up  Area,Ready To Move,TC Palaya,2 BHK,Foghaa ,1040,3,2,50,13.0106104,77.6932665
Plot  Area,Ready To Move,Kudlu Gate,2 BHK,Lancy R,1240,2,2,60,12.8899174,77.6396808
Built-up  Area,Ready To Move,Bannerghatta Road,2 BHK,RothaVa,1180,5,2,75,12.9504037,77.6033713
Super built-up  Area,Ready To Move,Whitefield,2 BHK,SNity S,1400,3,1,78,12.9963995,77.7614229
Plot  Area,Ready To Move,Sarjapur  Road,4 BHK,Pronege,4800,4,1,525,12.9239386,77.6396966
Super built-up  Area,Ready To Move,Whitefield,3 BHK,Puallhi,1984,2,2,146,12.9963995,77.7614229
Plot  Area,Ready To Move,Garudachar Palya,4 BHK,VDe 1Du,3000,2,2,250,12.9861986,77.702146
Super built-up  Area,Ready To Move,Sarjapur  Road,3 BHK,BrlisMe,1960,2,1,160,12.9239386,77.6396966
Super built-up  Area,Ready To Move,Whitefield,2 BHK,Shthi S,1035,3,3,45,12.9963995,77.7614229
Built-up  Area,Ready To Move,Hosakerehalli,3 BHK,Mithmn ,1700,2,3,115,12.9301881,77.5378332
Super built-up  Area,Ready To Move,Tumkur Road,4 BHK,Taonte ,3024,2,3,248,13.0184718,77.5577542
Super built-up  Area,21-Jan,Hennur,3 BHK,Sapus S,1586,2,0,100,13.037077,77.6413572
Built-up  Area,18-May,Chikka Tirupathi,3 BHK,Asoilul,2264,2,2,155,12.8957681,77.8671014
Plot  Area,Ready To Move,Yelahanka,4 BHK,Theanmp,2325,2,2,120,13.1006982,77.5963454
Super built-up  Area,Ready To Move,Yelahanka,2 BHK,Rarthne,1120,2,2,55,13.1006982,77.5963454
Super built-up  Area,18-Jun,Sarjapur  Road,3 BHK,Shalkri,1662,2,1,67.98,12.9239386,77.6396966
Super built-up  Area,Ready To Move,Jigani,2 BHK,CharkGr,1128,2,1,59,12.7756195,77.6324661
Super built-up  Area,Ready To Move,Suraksha Nagar,2 BHK,DLhtsan,924,4,2,65,12.9749515,77.6063599
Super built-up  Area,Ready To Move,Amruthahalli,3 BHK,AritaFe,1600,5,1,52,13.0688336,77.6034132
Super built-up  Area,Ready To Move,Kannamangala,2 BHK,Srncy R,1200,3,1,55,13.0155506,77.7630344
Built-up  Area,Ready To Move,Whitefield,2 BHK,VBownre,957,2,2,56,12.9963995,77.7614229
Super built-up  Area,Ready To Move,Roopena Agrahara,2 BHK,SSthamh,1140,3,2,41,12.91064,77.6238263
Super built-up  Area,Ready To Move,Whitefield,2 BHK,RortsCo,1050,3,3,67,12.9963995,77.7614229
Super built-up  Area,Ready To Move,Kanakpura Road,2 BHK,GClmsun,1190,4,2,57,12.8856913,77.5526564
Built-up  Area,Ready To Move,Whitefield,3 BHK,SoapeSu,1558.67,1,2,65,12.9963995,77.7614229
Super built-up  Area,Ready To Move,Kanakpura Road,3 BHK,Iseenst,1403,2,2,60.81,12.8856913,77.5526564
Super built-up  Area,Ready To Move,Haralur Road,3 BHK,SLourle,1542,4,1,85,12.9018012,77.6641767
Super built-up  Area,Ready To Move,Dooravani Nagar,4 BHK,Emine P,3596,2,2,290,13.0080094,77.6833497
Super built-up  Area,Ready To Move,Channasandra,3 BHK,Puceswn,1596,2,2,105,12.9873426,77.7538033
Super built-up  Area,17-Nov,Hosa Road,2 BHK,Unm 2El,1009,2,1,38.34,12.8816077,77.6448181
Super built-up  Area,18-Jul,Kudlu Gate,3 BHK,Mahesr ,1726,2,3,81.99,12.8899174,77.6396808
Super built-up  Area,Ready To Move,Whitefield,3 BHK,Srier P,1535,3,2,86,12.9963995,77.7614229
Super built-up  Area,19-Dec,Kalkere,1 BHK,Shestlo,665,2,1,50.75,13.0350897,77.6738079
Built-up  Area,Ready To Move,Old Airport Road,2 BHK,Sothin ,925,2,2,48,12.9572062,77.6741501
Super built-up  Area,18-Dec,Gollahalli,4 BHK,Jaades ,3356,2,1,251,12.821532,77.5852714
Super built-up  Area,Ready To Move,Sonnenahalli,2 BHK,ArzzaRe,1395,2,1,63.59,12.9433048,77.4801187
Super built-up  Area,Ready To Move,Begur,3 BHK,DSgam S,1415,2,1,55,12.8633887,77.6130112
Super built-up  Area,Ready To Move,Kasavanhalli,3 BHK,Arera V,1419,1,1,59,12.9047595,77.6759172
Super built-up  Area,18-Feb,KR Puram,2 BHK,Brersge,1121,3,1,78,13.007516,77.695935
Super built-up  Area,18-Jun,Hoodi,2 BHK,MCnexva,1100,2,3,47,12.9959233,77.7192796
Super built-up  Area,Ready To Move,D Souza Layout,3 BHK,Keers S,1606,2,1,89.55,12.9696296,77.5968003
Super built-up  Area,Ready To Move,Old Airport Road,3 BHK,Niateki,4634,3,1,1015,12.9572062,77.6741501
Super built-up  Area,Ready To Move,Sarjapur  Road,2 BHK,Vadel C,1206,2,3,75,12.9239386,77.6396966
Built-up  Area,Ready To Move,Electronic City,3 BHK,HIideSu,1495,2,0,64,12.8487599,77.648253
Super built-up  Area,Ready To Move,Nagarbhavi,2 BHK,Itelaa ,710,6,1,16,12.9651215,77.5090098
Super built-up  Area,Ready To Move,Whitefield,3 BHK,DSesthr,1523,2,2,53.4,12.9963995,77.7614229
Super built-up  Area,Ready To Move,Rachenahalli,2 BHK,Krine C,1232,2,3,45,13.0588586,77.6232576
Super built-up  Area,20-Aug,Hebbal,1 BHK,AsNowre,680,3,1,44,13.0382184,77.5919
Super built-up  Area,19-Dec,Thanisandra,3 BHK,Magiaya,1355,3,3,83.87,13.054713,77.6339258
Super built-up  Area,Ready To Move,Electronic City,3 BHK,MenueNo,1430,2,1,51.46,12.8487599,77.648253
Super built-up  Area,Ready To Move,Marathahalli,2 BHK,GMown E,1070,2,2,56.1,12.9552572,77.6984163
Super built-up  Area,Ready To Move,Haralur Road,3 BHK,SatatHa,1610,2,2,90,12.9018012,77.6641767
Super built-up  Area,Ready To Move,Raja Rajeshwari Nagar,2 BHK,RInceeg,1140,2,3,43,12.932582,77.5162034
Super built-up  Area,Ready To Move,Jakkur,2 BHK,GrrvaGr,1143,3,2,38.65,13.0784743,77.6068938
Super built-up  Area,22-May,Rachenahalli,4 BHK,SoineC ,3467.86,2,3,249,13.0588586,77.6232576
Super built-up  Area,Ready To Move,7th Phase JP Nagar,3 BHK,Sovar S,1530,3,2,74.4,12.9136133,77.595695
Super built-up  Area,Ready To Move,Whitefield,2 BHK,Brnia G,980,3,1,69,12.9963995,77.7614229
Super built-up  Area,Ready To Move,Whitefield,3 BHK,ChodsGr,1485,4,1,65,12.9963995,77.7614229
Plot  Area,18-May,Whitefield,3 BHK,WoarkEm,1500,2,3,130,12.9963995,77.7614229
Super built-up  Area,18-Oct,Thanisandra,2 BHK,Umods W,1280,3,1,75,13.054713,77.6339258
Super built-up  Area,Ready To Move,Ashwath Nagar,2 BHK,Bhmesy ,1265,3,3,85,13.0467537,77.6321873
Super built-up  Area,Ready To Move,JP Nagar,2 BHK,SJcerpe,1262,5,1,63,12.9096941,77.5866067
Super built-up  Area,Ready To Move,Jigani,2 BHK,Maentor,940,2,2,49,12.7756195,77.6324661
Super built-up  Area,Ready To Move,Electronic City,3 BHK,DLhtsan,1300,1,1,150,12.8487599,77.648253
Built-up  Area,Ready To Move,Hennur Road,2 BHK,Itvir M,890,2,2,45,13.0351224,77.631944
Super built-up  Area,Ready To Move,Bommanahalli,3 BHK,SaireSa,2060,2,2,149,12.9089453,77.6239038
Super built-up  Area,Ready To Move,Yelahanka,3 BHK,SNeur G,1730,2,1,96,13.1006982,77.5963454
Built-up  Area,Ready To Move,Panathur,3 BHK,Leilo E,2195,2,1,127,12.9351457,77.7047541
Super built-up  Area,19-Oct,Hoodi,2 BHK,Caiya D,1085,4,1,36,12.9959233,77.7192796
Super built-up  Area,21-Jul,Vijayanagar,3 BHK,GoAirej,1639,3,2,98.32,12.9709537,77.5373851
Super built-up  Area,21-Jun,Palanahalli,3 BHK,Saityat,1739,3,1,116,13.1160811,77.6168047
Built-up  Area,Ready To Move,Old Madras Road,4 BHK,RMaanSa,4346,2,2,500,13.0082277,77.6941931
Super built-up  Area,20-Dec, Thanisandra,2 BHK,Shmes O,935,2,2,32.72,13.054713,77.6339258
Super built-up  Area,21-Nov,Nagondanahalli,1 BHK,Bhe 2ko,510,3,1,25.25,12.97516,77.7703403
Super built-up  Area,Ready To Move,Chikkalasandra,2 BHK,PrestSe,1178,1,3,47,12.9121916,77.5476337
Built-up  Area,Ready To Move,Chandapura,3 BHK,Siourpl,1375,3,3,50,12.8009043,77.7114908
Super built-up  Area,Ready To Move,Koramangala,3 BHK,Halms S,1065,4,2,33,12.9357366,77.624081
Super built-up  Area,Ready To Move,Hoodi,3 BHK,Wiass G,1835,3,2,155,12.9959233,77.7192796
Super built-up  Area,20-Dec,Lingadheeranahalli,4 BHK,Caycend,2090,2,1,95.1,13.0026688,77.4915418
Super built-up  Area,Ready To Move,Dommasandra,3 BHK,Soiewre,1519,3,3,93,12.8777098,77.7534769
Built-up  Area,Ready To Move,Sanjay nagar,3 BHK,Asene S,1267,2,2,56,12.9578658,77.6958748
Super built-up  Area,Ready To Move,Marathahalli,2 BHK,Camesa ,1150,2,0,72.2,12.9552572,77.6984163
Super built-up  Area,19-Dec,Kannamangala,2 BHK,PrensKe,1146,2,2,70,13.0155506,77.7630344
Built-up  Area,Ready To Move,Chandapura,3 BHK,Marnaer,1550,2,1,65,12.8009043,77.7114908
Built-up  Area,Ready To Move,Richmond Town,2 BHK,KHityry,850,2,2,18.5,12.963555,77.6015856
Super built-up  Area,Ready To Move,Hebbal Kempapura,3 BHK,Kaestid,2200,3,2,187,13.0514799,77.5933559
Super built-up  Area,Ready To Move,Raja Rajeshwari Nagar,3 BHK,GonumPl,2900,2,1,300,12.932582,77.5162034
Built-up  Area,Ready To Move,Bellandur,3 BHK,Avlya A,1610,3,1,74,12.9361208,77.6671843
Super built-up  Area,Ready To Move,Sarjapur  Road,2 BHK,Krine O,921,3,1,40,12.9239386,77.6396966
Super built-up  Area,Ready To Move,Sarjapur,3 BHK,SocusHi,1700,5,1,110,12.9116225,77.6388622
Super built-up  Area,Ready To Move,Thanisandra,2 BHK,Dintsmi,1090,3,2,52,13.054713,77.6339258
Super built-up  Area,Ready To Move,Doddathoguru,2 BHK,MenueNo,1185,2,1,42.1,12.8505644,77.6466948
Super built-up  Area,Ready To Move,Harlur,2 BHK,Prianhi,850,2,1,25,12.9058923,77.675465
Built-up  Area,Ready To Move,Byadarahalli,2 BHK,Prncyrn,1197,3,2,84,12.983302,77.4809397
Super built-up  Area,Ready To Move,Raja Rajeshwari Nagar,4 BHK,ETntsce,3500,2,1,450,12.932582,77.5162034
Super built-up  Area,Ready To Move,Yeshwanthpur,2 BHK,i1rtsCo,1105,3,1,65,13.0176937,77.5555009
Super built-up  Area,Ready To Move,Judicial Layout,3 BHK,GoandAc,1850,3,1,100,13.0837692,77.5860438
Super built-up  Area,20-Dec,Kodihalli,3 BHK,PrarePa,1300,3,2,64,12.9624481,77.6463772
Super built-up  Area,19-Dec,Kanakpura Road,4 BHK,Priesla,3073,2,1,696,12.8856913,77.5526564
Super built-up  Area,20-Oct,Bannerghatta Road,2 BHK,PrarePa,900,2,0,46,12.9504037,77.6033713
Super built-up  Area,Ready To Move,Outer Ring Road East,3 BHK,PrliaRe,1654,3,1,100,12.9833084,77.6931716
Built-up  Area,Ready To Move,Devanahalli,2 BHK,Hoens T,1367,4,0,62,13.2483502,77.7134377
Super built-up  Area,Ready To Move,Vinayaka Nagar,2 BHK,Brntsal,1010,4,3,51,12.9872184,77.5230958
Carpet  Area,Ready To Move,Whitefield,3 BHK,SVon hn,1535,3,1,95,12.9963995,77.7614229
Super built-up  Area,18-Dec,JP Nagar,2 BHK,BSlasin,1330,2,1,71,12.9096941,77.5866067
Super built-up  Area,Ready To Move,Yelahanka,3 BHK,BSisear,1410,3,0,65,13.1006982,77.5963454
Super built-up  Area,Ready To Move,Neeladri Nagar,3 BHK,PuziaVe,1614,3,1,95,12.8414612,77.6479661
Super built-up  Area,Ready To Move,GB Palya,2 BHK,GeereEc,1363,1,2,68,12.974779,77.6654084
Super built-up  Area,Ready To Move,Karuna Nagar,2 BHK,Ravashw,930,2,2,45,12.9827061,77.6251679
Super built-up  Area,Ready To Move,Kadugodi,4 BHK,AjityIn,2900,2,3,135,12.9957428,77.7579489
Super built-up  Area,18-Mar,Ashwathnagar,3 BHK,Alestrb,1890,2,3,127,13.026056,77.5789157
Super built-up  Area,Ready To Move,Hebbal Kempapura,3 BHK,Vaour S,2197,2,2,280,13.0514799,77.5933559
Super built-up  Area,Ready To Move,HRBR Layout,3 BHK,GonumPl,3522,3,1,380,13.0204703,77.6241642
Built-up  Area,Ready To Move,Budigere,2 BHK,Vaaveeh,1440,2,2,98,13.1351506,77.7471989
Super built-up  Area,19-Jun,Raja Rajeshwari Nagar,1 BHK,Brstaue,764,2,1,32,12.932582,77.5162034
Super built-up  Area,Ready To Move,Hoodi,3 BHK,GrrvaGr,1693,2,1,57.39,12.9959233,77.7192796
Built-up  Area,Ready To Move,Kanakpura Road,3 BHK,Macanr ,1445,2,1,65,12.8856913,77.5526564
Super built-up  Area,21-Oct,Yelahanka,2 BHK,PrarePa,900,3,2,45,13.1006982,77.5963454
Super built-up  Area,Ready To Move,Basapura,3 BHK,Pyikad ,1381,2,2,52.48,12.8686664,77.6441741
Built-up  Area,Ready To Move,Begur Road,2 BHK,Krtiqa ,1100,2,1,60,12.8856188,77.6252418
Super built-up  Area,Ready To Move,Kasturi Nagar,2 BHK,Dhalsh ,1200,2,3,43.2,13.0044979,77.6603231
Super built-up  Area,Ready To Move,Jakkur,2 BHK,GradeMR,1080,2,2,80,13.0784743,77.6068938
Super built-up  Area,19-Dec,Sarjapur  Road,3 BHK,Ceezey ,1865,2,3,124,12.9239386,77.6396966
Super built-up  Area,18-Nov,Kammasandra,3 BHK,AsastDe,1157,2,1,75,13.079198,77.7136366
Super built-up  Area,Ready To Move,Whitefield,2 BHK,Icingpy,674,5,2,29,12.9963995,77.7614229
Super built-up  Area,Ready To Move,Begur Road,3 BHK,AdndeBe,1405,2,2,78,12.8856188,77.6252418
Super built-up  Area,Ready To Move,Hebbal,2 BHK,Dhalsh ,1160,2,2,44.08,13.0382184,77.5919
Super built-up  Area,21-Mar,Electronic City,3 BHK,Oztarol,1790,2,3,127,12.8487599,77.648253
Super built-up  Area,18-May,Panathur,2 BHK,Prarkun,1128,2,1,65.65,12.9351457,77.7047541
Super built-up  Area,Ready To Move,Varthur,2 BHK,Arentpa,1180,3,1,70,12.9406508,77.746988
Super built-up  Area,Ready To Move,Vittasandra,2 BHK,Pethaai,1125,1,2,40,12.8654221,77.6295788
Super built-up  Area,Ready To Move,HSR Layout,2 BHK,Prlla C,1246,3,0,68,12.9116225,77.6388622
Super built-up  Area,Ready To Move,Uttarahalli,2 BHK,SrisePo,1372,3,2,61,12.9055682,77.5455438
Super built-up  Area,19-Dec,Channasandra,3 BHK,She 2rk,2465,2,2,234,12.9873426,77.7538033
Super built-up  Area,Ready To Move,Hebbal,2 BHK,Unm 2El,1065,2,2,35,13.0382184,77.5919
Carpet  Area,18-Mar,Belathur,2 BHK,Arcia S,687.325,2,2,42.72,13.0040142,77.757116
Super built-up  Area,Ready To Move,Electronic City,2 BHK,Viiniai,1050,2,2,45,12.8487599,77.648253
Built-up  Area,Ready To Move,Srirampura,2 BHK,Palleon,865,3,2,42,12.9964948,77.5632993
Built-up  Area,Ready To Move,Yelahanka,3 BHK,NRnoral,1756,2,2,100,13.1006982,77.5963454
Super built-up  Area,Ready To Move,Kalena Agrahara,1 BHK,Ardanru,628,1,1,24,12.8658068,77.5911918
Super built-up  Area,Ready To Move,Devanahalli Road,3 BHK,KlarkBe,1765,2,2,125,13.2008264,77.7023538
Super built-up  Area,18-Jun,Ejipura,3 BHK,Ozana U,1532,2,2,92,12.945245,77.6274776
Carpet  Area,18-Dec,Green Woods Layout,2 BHK,Rosha I,804.1,2,2,69.09,13.0584954,77.6263659
Built-up  Area,Ready To Move,Uttarahalli,2 BHK,Paarklu,1200,2,1,66,12.9055682,77.5455438
Super built-up  Area,Ready To Move,Craig Park Layout,3 BHK,Shony S,1385,2,1,48.48,12.9713834,77.6158386
Super built-up  Area,Ready To Move,Whitefield,2 BHK,Cearkry,1010,2,1,148,12.9963995,77.7614229
Super built-up  Area,Ready To Move,Immadihalli,3 BHK,UKe 2nz,2225,2,1,115,12.9663991,77.762046
Super built-up  Area,Ready To Move,Attibele,2 BHK,Niimet ,1180,2,3,48,12.7751249,77.7709216
Built-up  Area,Ready To Move,Dommasandra,1 BHK,Jae 2hu,400,2,2,14,12.8777098,77.7534769
Super built-up  Area,Ready To Move,Whitefield,2 BHK,Asene S,1200,2,3,50,12.9963995,77.7614229
Super built-up  Area,21-Mar,Whitefield,2 BHK,PritaDo,1272,2,3,95.05,12.9963995,77.7614229
Super built-up  Area,Ready To Move,Kalena Agrahara,2 BHK,SSthamh,1205,3,1,39,12.8658068,77.5911918
Built-up  Area,Ready To Move,Ramagondanahalli,2 BHK,ARomee ,980,5,2,40,12.9558969,77.7405826
Super built-up  Area,Ready To Move,Jalahalli,3 BHK,DNeremo,1610,5,2,111,13.0394104,77.5197351
Super built-up  Area,Ready To Move,Kaggalipura,2 BHK,Tahtsla,1694,2,3,125,12.8089587,77.5097006
Super built-up  Area,Ready To Move,Muneshwara Nagar,2 BHK,Baowsig,950,2,2,39,13.0155777,77.6109066
Super built-up  Area,Ready To Move,Electronic City,3 BHK,Laderav,1560,2,1,66,12.8487599,77.648253
Super built-up  Area,Ready To Move,Kundalahalli,2 BHK,CoapeSo,910,1,2,42,12.977594,77.7155586
Super built-up  Area,Ready To Move,Varthur,2 BHK,Vangsld,1291,3,1,49,12.9406508,77.746988
Super built-up  Area,Ready To Move,Sarjapur  Road,2 BHK,Soamsay,1012,3,1,66.5,12.9239386,77.6396966
Super built-up  Area,Ready To Move,Kanakpura Road,2 BHK,Maantr ,1282,3,0,72,12.8856913,77.5526564
Super built-up  Area,Ready To Move,Chikka Tirupathi,3 BHK,Puestol,1843,2,0,92.15,12.8957681,77.8671014
Built-up  Area,Ready To Move,Hebbal,5 BHK,Theanmp,3356,2,2,105,13.0382184,77.5919
Super built-up  Area,19-Mar,EPIP Zone,4 BHK,Raard B,2790,2,2,198,12.9781922,77.7246451
Super built-up  Area,Ready To Move,Konanakunte,2 BHK,BrontLa,1330,2,2,86.98,12.8792861,77.5697529
Super built-up  Area,Ready To Move,Thigalarapalya,3 BHK,A rtsai,1400,2,1,73,13.0170955,77.4829741
Super built-up  Area,Ready To Move,Sarjapur  Road,2 BHK,Prtanha,1297,2,0,103,12.9239386,77.6396966
Super built-up  Area,19-Jul,Vijayanagar,1 BHK,Sasta S,615,3,2,17.835,12.9709537,77.5373851
Super built-up  Area,21-Jun,Rayasandra,3 BHK,Saahaat,1490,4,0,100,12.8795774,77.6719842
Super built-up  Area,Ready To Move,HSR Layout,3 BHK,MJeusyl,1373,4,1,72,12.9116225,77.6388622
Super built-up  Area,Ready To Move,Malleshpalya,3 BHK,Klort C,1750,2,3,95,12.9744129,77.6743533
Super built-up  Area,Ready To Move,Raja Rajeshwari Nagar,2 BHK,A idse ,1052,2,1,50,12.932582,77.5162034
Super built-up  Area,Ready To Move,JP Nagar,2 BHK,GrrvaGr,1128,2,1,38.24,12.9096941,77.5866067
Super built-up  Area,18-Jul,Kanakapura,2 BHK,DSvvyx ,1120,3,2,33.6,12.875978,77.5441292
Super built-up  Area,Ready To Move,Uttarahalli,2 BHK,SPavenc,1090,2,1,32.69,12.9055682,77.5455438
Super built-up  Area,Ready To Move,Hosur Road,3 BHK,SLnssPr,1330,3,1,46.55,12.9193621,77.6214458
Super built-up  Area,18-Jul,Begur,3 BHK,PuendWe,1427,3,1,80.63,12.8633887,77.6130112
Built-up  Area,Ready To Move,Chikka Tirupathi,3 BHK,Vantspa,1580,3,1,75,12.8957681,77.8671014
Plot  Area,Ready To Move,Rajaji Nagar,3 BHK,FiriaVi,1808,2,2,80.27,12.9945793,77.5503967
Super built-up  Area,Ready To Move,Parappana Agrahara,4 BHK,PhestOn,3516,2,2,540,12.8802089,77.6658442
Super built-up  Area,Ready To Move,Kanakpura Road,2 BHK,Peide L,1194,4,2,47,12.8856913,77.5526564
Super built-up  Area,21-Dec,Kanakpura Road,2 BHK,PrarePa,900,2,1,46,12.8856913,77.5526564
Super built-up  Area,21-Oct,Lakshmi Layout,2 BHK,PrarePa,900,4,0,46,12.8874469,77.5824258
Built-up  Area,Ready To Move,Yelahanka,2 BHK,Prityel,845,4,0,33,13.1006982,77.5963454
Super built-up  Area,Ready To Move,Hoodi,3 BHK,Niareum,1537,2,1,120,12.9959233,77.7192796
Super built-up  Area,19-Dec,Jigani,3 BHK,Caycend,1512,3,2,75.77,12.7756195,77.6324661
Super built-up  Area,Ready To Move,Thirumenahalli,3 BHK,DLhtsen,1230,2,2,54,13.0901794,77.6334125
Super built-up  Area,18-Apr,Whitefield,3 BHK,MNtha A,1378,3,1,42.33,12.9963995,77.7614229
Super built-up  Area,17-Oct,Hebbal,2 BHK,Asarqz ,1277,1,3,61.3,13.0382184,77.5919
Super built-up  Area,19-Jun,KPC Layout,3 BHK,Raard B,1985,5,1,189,12.9041861,77.6778517
Super built-up  Area,Ready To Move,Ardendale,2 BHK,SVmesVi,1210,3,3,62,13.0261316,77.7664705
Built-up  Area,Ready To Move,Hebbal,4 BHK,AWharde,3198,2,2,200,13.0382184,77.5919
Super built-up  Area,Ready To Move,Sarjapur  Road,4 BHK,Prersis,2483,2,3,215,12.9239386,77.6396966
Super built-up  Area,Ready To Move,Electronic City,4 BHK,Vaunei ,4111,2,2,310,12.8487599,77.648253
Super built-up  Area,Ready To Move,Rajiv Nagar,2 BHK,SNncypa,975,6,3,37.5,13.0189644,77.5443026
Super built-up  Area,Ready To Move,Hosa Road,3 BHK,PuoodSk,1690,2,1,125,12.8816077,77.6448181
Built-up  Area,Ready To Move,Bommanahalli,3 BHK,InockHo,1600,2,2,80,12.9089453,77.6239038
Super built-up  Area,Ready To Move,Marathahalli,1 BHK,Prtusth,520,4,1,19.5,12.9552572,77.6984163
Built-up  Area,Ready To Move,Whitefield,3 BHK,Keids O,1390,2,1,68,12.9963995,77.7614229
Super built-up  Area,18-May,Sahakara Nagar,2 BHK,SSdhimr,1185,3,2,40,13.0621474,77.5800614
Super built-up  Area,Ready To Move,Kudlu Gate,2 BHK,KVersuj,1219,2,3,48,12.8899174,77.6396808
Super built-up  Area,18-Dec,Sarjapur  Road,3 BHK,Sanzaat,1564,3,2,92,12.9239386,77.6396966
Super built-up  Area,Ready To Move,Hosa Road,4 BHK,DSndsod,3430,2,2,228.5,12.8816077,77.6448181
Built-up  Area,Ready To Move,Hennur Road,3 BHK,Esale O,1300,2,2,60,13.0351224,77.631944
Super built-up  Area,19-Mar,Marsur,3 BHK,Puachal,1482,2,3,92,12.7678915,77.7043732
Plot  Area,18-May,Marathahalli,3 BHK,MGave E,1000,2,1,66,12.9552572,77.6984163
Super built-up  Area,19-Dec,Balagere,3 BHK,PrensKe,1469,2,1,89,12.9377243,77.7280705
Super built-up  Area,Ready To Move,Gubbalala,2 BHK,Soresea,1205,3,0,78.5,12.8856635,77.5416809
Super built-up  Area,Ready To Move,AECS Layout,3 BHK,MauilTr,1745,2,3,125,13.0311884,77.5753526
Super built-up  Area,Ready To Move,Frazer Town,2 BHK,Kamesar,1028,3,2,42,12.9975851,77.6136744
Super built-up  Area,Ready To Move,Karuna Nagar,3 BHK,CaaveEn,1700,1,2,180,12.9827061,77.6251679
Super built-up  Area,Ready To Move,Kodihalli,3 BHK,NadriNe,1200,2,1,34,12.9624481,77.6463772
Built-up  Area,Ready To Move,Kaverappa Layout,2 BHK,BSarknd,1100,2,1,50,12.9907651,77.5945915
Super built-up  Area,Ready To Move,Electronic City Phase II,2 BHK,Dural C,1269.72,3,3,68,12.8463512,77.6690975
Super built-up  Area,Ready To Move,Mysore Road,2 BHK,SJmesst,1266,2,3,59,12.9466619,77.5300896
Plot  Area,Ready To Move,Medahalli,3 BHK,Copust ,1168,2,1,70,13.0278454,77.7206079
Super built-up  Area,18-May,Attibele,3 BHK,Sodgere,2038.5,3,1,120,12.7751249,77.7709216
Super built-up  Area,Ready To Move,Electronics City Phase 1,2 BHK,Shntsan,1300,2,2,65,12.8401734,77.6595099
Built-up  Area,Ready To Move,Harlur,2 BHK,SNavenc,920,2,1,33,12.9058923,77.675465
Built-up  Area,Ready To Move,Garden Layout,2 BHK,SrEndPo,1310,3,1,50,12.9647458,77.5311092
Super built-up  Area,Ready To Move,Raja Rajeshwari Nagar,3 BHK,DSidePr,1515,1,1,93.93,12.932582,77.5162034
Super built-up  Area,18-Dec,Konanakunte,2 BHK,Prllsan,1157,2,1,53.8,12.8792861,77.5697529
Super built-up  Area,Ready To Move,Rachenahalli,4 BHK,Siisega,3000,3,3,160,13.0588586,77.6232576
Super built-up  Area,Ready To Move,Judicial Layout,3 BHK,Sovar S,1530,3,0,74.39,13.0837692,77.5860438
Super built-up  Area,Ready To Move,Yelahanka,3 BHK,HRnyaAn,2070,3,0,162,13.1006982,77.5963454
Built-up  Area,Ready To Move,Sarjapur  Road,3 BHK,PrrloMo,1815,3,3,82,12.9239386,77.6396966
Super built-up  Area,Ready To Move,Electronic City Phase II,4 BHK,Maana E,3900,2,0,300,12.8463512,77.6690975
Super built-up  Area,18-Aug,Hennur Road,2 BHK,Sryalan,1000,6,2,28.88,13.0351224,77.631944
Super built-up  Area,19-Dec,Yelahanka,3 BHK,Shestlo,1282,3,1,178,13.1006982,77.5963454
Super built-up  Area,Ready To Move,T K Reddy Layout,3 BHK,Prityel,1075,3,2,45,12.9629601,77.6415961
Super built-up  Area,Ready To Move,Whitefield,3 BHK,DSineun,1616,4,1,75,12.9963995,77.7614229
Super built-up  Area,20-Dec,Whitefield,3 BHK,Somns T,1306,2,3,54.65,12.9963995,77.7614229
Super built-up  Area,Ready To Move,Whitefield,3 BHK,Nillsre,1626,2,1,89,12.9963995,77.7614229
Super built-up  Area,Ready To Move,Kanakpura Road,3 BHK,Sudama ,1585,2,2,88,12.8856913,77.5526564
Super built-up  Area,Ready To Move,Old Madras Road,2 BHK,Goelsn ,1495,2,1,90,13.0082277,77.6941931
Super built-up  Area,Ready To Move,Whitefield,4 BHK,Brica E,3715,2,2,224.5,12.9963995,77.7614229
Super built-up  Area,21-Dec,Kaikondrahalli,1 BHK,SudenEd,665,2,2,28.585,12.9138348,77.6775268
Super built-up  Area,Ready To Move,Doddanekundi,3 BHK,Brtiael,1645,3,2,100,12.9713194,77.6964768
Super built-up  Area,Ready To Move,Venkatadri Layout,3 BHK,AkletBa,1760,3,1,176,13.0054564,77.6260428
Built-up  Area,Ready To Move,Bommenahalli,1 BHK,Raiyai ,595,3,2,42,13.0742536,77.7465943
Plot  Area,Ready To Move,JP Nagar,3 BHK,Prana S,1200,3,2,125,12.9096941,77.5866067
Built-up  Area,Ready To Move,Sarjapur  Road,2 BHK,Vaodak ,1410,2,1,67,12.9239386,77.6396966
Super built-up  Area,Ready To Move,9th Phase JP Nagar,2 BHK,Maaveal,1300,2,3,60,12.9107357,77.5829631
Built-up  Area,Ready To Move,Belathur,3 BHK,ImiteEl,1890,4,2,85,13.0040142,77.757116
Built-up  Area,Ready To Move,Panathur,2 BHK,TealdEm,1170,2,2,86,12.9351457,77.7047541
Super built-up  Area,18-Apr,Marathahalli,2 BHK,Prcesvy,1193,2,2,86,12.9552572,77.6984163
Super built-up  Area,Ready To Move,Gunjur,3 BHK,PadgeOa,1678,2,3,70,12.9209772,77.7361016
Built-up  Area,Ready To Move,Electronics City Phase 1,3 BHK,NDrelau,1600,3,2,75,12.8401734,77.6595099
Super built-up  Area,Ready To Move,Singena Agrahara,3 BHK,GaicaVe,1750,2,1,84,12.8400642,77.7126767
Plot  Area,Ready To Move,HBR Layout,3 BHK,CoiewSy,2800,2,1,95,13.031992,77.6280789
Built-up  Area,Ready To Move,Vittal Nagar,3 BHK,Peentn ,1000,2,2,200,12.9012176,77.5550809
Built-up  Area,Ready To Move,Electronic City Phase II,2 BHK,Riave E,1320,1,2,50,12.8463512,77.6690975
Built-up  Area,18-Dec,Ardendale,3 BHK,Sryalan,2422,3,1,38.13,13.0261316,77.7664705
Super built-up  Area,Ready To Move,Kasavanhalli,4 BHK,AWharde,1100,2,2,160,12.9047595,77.6759172
Built-up  Area,Ready To Move,Uttarahalli,2 BHK,TNaldme,845,2,1,50,12.9055682,77.5455438
Super built-up  Area,Ready To Move,Kambipura,2 BHK,Prityel,883,2,3,37,12.882271,77.4606466
Super built-up  Area,Ready To Move,Thanisandra,2 BHK,Prrtht ,776.5,3,2,39,13.054713,77.6339258
Super built-up  Area,Ready To Move,Brookefield,1 BHK,Bhmesy ,1595,4,1,48.145,12.9652094,77.717936
Super built-up  Area,Ready To Move,Whitefield,3 BHK,Gotaten,1280,2,2,88,12.9963995,77.7614229
Built-up  Area,Ready To Move,Bhuvaneshwari Nagar,2 BHK,Gotis A,920,2,1,85,12.9232498,77.5493787
Super built-up  Area,Ready To Move,Choodasandra,2 BHK,NaaveEn,1300,2,3,35,12.8883623,77.6799727
Super built-up  Area,Ready To Move,Shanthala Nagar,2 BHK,GRlpank,1450,2,3,57,12.9714173,77.5994394
Super built-up  Area,Ready To Move,Harlur,2 BHK,Malex C,1757,2,1,230,12.9058923,77.675465
Super built-up  Area,Ready To Move,EPIP Zone,3 BHK,SosicCl,1330,2,3,132,12.9781922,77.7246451
Super built-up  Area,18-Feb,8th Phase JP Nagar,2 BHK,BrontLa,1062,3,1,93.36,12.9104062,77.5951099
Super built-up  Area,Ready To Move,JP Nagar,2 BHK,MBodsen,1078,2,1,42.47,12.9096941,77.5866067
Built-up  Area,Ready To Move,Bannerghatta Road,2 BHK,DSillto,1460,2,2,45,12.9504037,77.6033713
Super built-up  Area,Ready To Move,Hosa Road,3 BHK,SNity S,2028,2,1,72,12.8816077,77.6448181
Super built-up  Area,19-Mar,Prithvi Layout,3 BHK,Sosisic,980,4,3,115,12.977178,77.7436455
Plot  Area,Ready To Move,Mysore Road,4 BHK,Prigh L,1000,3,1,162,12.9466619,77.5300896
Super built-up  Area,19-Apr,Sarjapur  Road,2 BHK,Brama P,1050,3,3,45.47,12.9239386,77.6396966
Built-up  Area,Ready To Move,Sarjapur  Road,2 BHK,Usquaya,1875,3,2,40,12.9239386,77.6396966
Super built-up  Area,Ready To Move,Domlur,2 BHK,Ahriaup,1725,2,2,62,12.9624669,77.6381958
Super built-up  Area,Ready To Move,5th Phase JP Nagar,3 BHK,Saiewas,1128,2,1,150,12.91241,77.591056
Built-up  Area,Ready To Move,Thubarahalli,3 BHK,Shlashi,1705,2,2,100,12.9547872,77.7213154
Super built-up  Area,Ready To Move,Yelahanka,2 BHK,Adity S,1100,3,3,75,13.1006982,77.5963454
Super built-up  Area,Ready To Move,Hebbal,3 BHK,Prensya,2817.5,3,2,74.16,13.0382184,77.5919
Built-up  Area,Ready To Move,Hebbal,2 BHK,AkncyRe,1420,2,1,50,13.0382184,77.5919
Super built-up  Area,19-Dec,Whitefield,4 BHK,Shestlo,2774,2,2,204,12.9963995,77.7614229
Super built-up  Area,Ready To Move,Old Airport Road,2 BHK,BruntPa,1722,2,2,136,12.9572062,77.6741501
Super built-up  Area,18-May,HBR Layout,4 BHK,Jaades ,840,3,2,207,13.031992,77.6280789
Super built-up  Area,Ready To Move,Indira Nagar,3 BHK,Gats He,914,2,2,95,12.9732913,77.6404672
Built-up  Area,Ready To Move,Jigani,2 BHK,Raave E,1482,1,2,27,12.7756195,77.6324661
Built-up  Area,Ready To Move,Hennur Road,2 BHK,DLhtsan,1724,3,2,47,13.0351224,77.631944
Super built-up  Area,19-Mar,Kundalahalli,3 BHK,Puachal,1670,2,1,83.73,12.977594,77.7155586
Super built-up  Area,17-Dec,Vijinapura,3 BHK,Dieldli,927,3,1,127,13.007014,77.6678633
Super built-up  Area,Ready To Move,Jigani,3 BHK,Vadidpl,1220,4,1,91.86,12.7756195,77.6324661
Super built-up  Area,Ready To Move,Electronic City Phase II,2 BHK,DLhtsen,1360,2,0,55,12.8463512,77.6690975
Built-up  Area,18-Aug,Electronic City,3 BHK,Sryalan,1180,3,2,35.23,12.8487599,77.648253
Built-up  Area,Ready To Move,7th Phase JP Nagar,3 BHK,GMown E,1697,2,2,75,12.9136133,77.595695
Super built-up  Area,Ready To Move,Whitefield,2 BHK,Hiestre,1225,1,2,72,12.9963995,77.7614229
Super built-up  Area,Ready To Move,Hennur,3 BHK,Prtates,1690,3,1,108,13.037077,77.6413572
Super built-up  Area,Ready To Move,Byrasandra,2 BHK,Shateor,1250,4,3,57,12.9822173,77.6657841
Super built-up  Area,Ready To Move,Chowdeshwari Layout,3 BHK,ViisePa,1050,3,3,55,12.8866341,77.604
Built-up  Area,Ready To Move,JP Nagar,3 BHK,Keharya,1699,2,1,80,12.9096941,77.5866067
Super built-up  Area,Ready To Move,Kanakpura Road,1 BHK,Duoveoo,1205,3,1,44,12.8856913,77.5526564
Super built-up  Area,21-May,Whitefield,3 BHK,GolusLi,1476,2,3,81.94,12.9963995,77.7614229
Built-up  Area,Ready To Move,Akshaya Nagar,2 BHK,Viaree ,2160,2,1,58,13.0195427,77.6831272
Super built-up  Area,Ready To Move,EPIP Zone,3 BHK,Hiows C,1296,4,1,120,12.9781922,77.7246451
Super built-up  Area,Ready To Move,Sector 2 HSR Layout,3 BHK,BrontLa,1570,2,2,172,12.9086807,77.6486567
Super built-up  Area,Ready To Move,Kanakpura Road,2 BHK,Putus L,1300,3,2,75,12.8856913,77.5526564
Super built-up  Area,Ready To Move,Koramangala,3 BHK,JRrnauv,770,4,1,64.5,12.9357366,77.624081
Super built-up  Area,Ready To Move,Electronic City,2 BHK,Saace P,1870,2,2,110,12.8487599,77.648253
Super built-up  Area,Ready To Move,Jalahalli,2 BHK,GMown E,1650,3,2,40,13.0394104,77.5197351
Built-up  Area,Ready To Move,Anantapura,3 BHK,Kuownri,1429,6,0,110,13.1150894,77.5679972
Plot  Area,Ready To Move,Domlur,3 BHK,Edleyil,1035,3,1,160,12.9624669,77.6381958
Super built-up  Area,Ready To Move,Bommasandra,3 BHK,Valipf ,884,4,3,86,13.0544346,77.5593269
Super built-up  Area,18-May,Sarjapur,2 BHK,SSestth,1026,2,1,41.73,12.9116225,77.6388622
Plot  Area,Ready To Move,Nagarbhavi,3 BHK,Inensba,2690,2,1,76,12.9651215,77.5090098
Super built-up  Area,Ready To Move,Hoodi,1 BHK,MaentNa,975,2,2,36,12.9959233,77.7192796
Super built-up  Area,19-Dec,Old Airport Road,2 BHK,Caycend,1700,2,3,60.87,12.9572062,77.6741501
Super built-up  Area,18-Dec,Subramanyapura,4 BHK,Jaades ,3606,2,2,191,12.8963963,77.5377864
Super built-up  Area,Ready To Move,Sarjapur  Road,2 BHK,Mayne A,1258,2,1,58,12.9239386,77.6396966
Super built-up  Area,Ready To Move,Whitefield,3 BHK,Maana E,1560,2,1,135,12.9963995,77.7614229
Super built-up  Area,Ready To Move,Padmanabhanagar,4 BHK,PrOakSi,3630,2,1,312,12.9181023,77.5576638
Super built-up  Area,Ready To Move,Kanakpura Road,2 BHK,ACersd ,2000,3,2,115,12.8856913,77.5526564
Carpet  Area,Ready To Move,Old Madras Road,3 BHK,Advash ,1494,3,0,92,13.0082277,77.6941931
Super built-up  Area,Ready To Move,JP Nagar,4 BHK,Brica E,800,2,3,195,12.9096941,77.5866067
Built-up  Area,Ready To Move,Hebbal,3 BHK,Adace P,1100,2,1,250,13.0382184,77.5919
Super built-up  Area,20-Jan,Hennur Road,3 BHK,DNncasa,1225,2,3,94.55,13.0351224,77.631944
Super built-up  Area,Ready To Move,Hulimavu,2 BHK,Inuseda,1180,3,1,50,12.8773486,77.6028031
Super built-up  Area,Ready To Move,4th Block Koramangala,2 BHK,RatosAr,1260,7,2,71.5,12.9299843,77.6305001
Super built-up  Area,Ready To Move,Hormavu,2 BHK,EvestPi,3461,6,1,150,13.016672,77.6548126
Built-up  Area,Ready To Move,Belatur,2 BHK,BhncyRe,1190,2,1,50,12.9975859,77.7559053
Super built-up  Area,Ready To Move,Yelahanka,2 BHK,Kehts H,1691,2,3,58,13.1006982,77.5963454
Super built-up  Area,19-Jun,Arekere,4 BHK,Vaaram ,1305,2,2,173,12.8872086,77.5960493
Built-up  Area,Ready To Move,Sarjapur  Road,2 BHK,DancyRe,1250,2,3,55,12.9239386,77.6396966
Super built-up  Area,Ready To Move,Frazer Town,3 BHK,Klark L,800,4,2,119,12.9975851,77.6136744
Built-up  Area,Ready To Move,Nallurhalli,3 BHK,Frhts H,1020,2,1,95.45,12.9766408,77.7248845
Super built-up  Area,Ready To Move,Kereguddadahalli,2 BHK,Mauil T,1614,3,2,65,13.0787974,77.5164773
Built-up  Area,Ready To Move,Jalahalli East,2 BHK,N iewak,1632,3,3,28,13.0578317,77.5462216
Super built-up  Area,Ready To Move,Frazer Town,2 BHK,ShshaSa,5080,2,1,58,12.9975851,77.6136744
Super built-up  Area,Ready To Move,Bommenahalli,3 BHK,DubowRa,3012,2,2,110,13.0742536,77.7465943
Built-up  Area,Ready To Move,7th Phase JP Nagar,4 BHK,Prana S,1450,2,2,145,12.9136133,77.595695
Built-up  Area,Ready To Move,Bannerghatta,6 BHK,BriumMi,1200,2,2,450,12.872129,77.5938554
Super built-up  Area,18-Jul,Sector 2 HSR Layout,4 BHK,Mamespa,1188,3,2,250,12.9086807,77.6486567
Super built-up  Area,Ready To Move,Bannerghatta Road,3 BHK,NCdgerj,2690,2,3,135,12.9504037,77.6033713
Super built-up  Area,Ready To Move,Hosur Road,2 BHK,Hiate F,1174,1,2,75,12.9193621,77.6214458
Super built-up  Area,Ready To Move,Old Airport Road,2 BHK,AlEcone,1350,3,3,73,12.9572062,77.6741501
Super built-up  Area,18-May,Harlur,4 BHK,Jaades ,1870,2,1,199,12.9058923,77.675465
Super built-up  Area,Ready To Move,Old Madras Road,2 BHK,Prncyrn,1072,2,1,76,13.0082277,77.6941931
Super built-up  Area,19-Dec,Frazer Town,3 BHK,SheldGr,726,2,2,58.99,12.9975851,77.6136744
Super built-up  Area,Ready To Move,Kengeri Satellite Town,3 BHK,Bamita ,1345,4,2,185,12.9229728,77.4842926
Super built-up  Area,18-Jun,Kengeri,2 BHK,DSestSt,1200,2,2,25,12.9176571,77.4837568
Super built-up  Area,18-Nov,Hosur Road,2 BHK,VBn 2lm,1050,3,1,31,12.9193621,77.6214458
Super built-up  Area,Ready To Move,Begur Road,2 BHK,Saageat,1743,2,1,106,12.8856188,77.6252418
Super built-up  Area,Ready To Move,Hormavu,2 BHK,Dhalsh ,950,3,1,45,13.016672,77.6548126
Super built-up  Area,Ready To Move,Vittasandra,2 BHK,SyidaCr,640,3,2,77,12.8654221,77.6295788
Super built-up  Area,Ready To Move,Sarjapur,3 BHK,Prlla C,972,3,1,85,12.9116225,77.6388622
Super built-up  Area,Ready To Move,Domlur,2 BHK,Sondaka,1840,4,3,32.5,12.9624669,77.6381958
Built-up  Area,Ready To Move,Electronic City Phase II,1 BHK,Saiewas,1128,3,3,55,12.8463512,77.6690975
Super built-up  Area,18-Jul,Marathahalli,2 BHK,MJtroty,2400,2,0,44,12.9552572,77.6984163
Super built-up  Area,Ready To Move,Electronic City,3 BHK,PadgeOa,1150,2,3,98,12.8487599,77.648253
Super built-up  Area,Ready To Move,Harappanahalli,2 BHK,Prarkun,3450,2,1,64,12.7904755,77.6226863
Plot  Area,Ready To Move,BTM Layout,2 BHK,Clood E,920,3,1,95,12.9140008,77.6102821
Super built-up  Area,Ready To Move,Hennur Road,2 BHK,Mames M,1564,2,2,63,13.0351224,77.631944
Built-up  Area,19-Mar,Jigani,4 BHK,Gollela,1045,6,3,294,12.7756195,77.6324661
Super built-up  Area,Ready To Move,Thanisandra,2 BHK,DLhtsen,2479.13,2,2,46,13.054713,77.6339258
Super built-up  Area,Ready To Move,Uttarahalli,3 BHK,Soitya ,1690,3,3,101,12.9055682,77.5455438
Super built-up  Area,Ready To Move,Kanaka Nagar,2 BHK,SirlsPe,3042,2,3,45,13.0374105,77.6082063
