sl_no,hospital_name,taluk,district,search_address,lat,lon
1,"Baddur Surgical & Maternity Home,Banahatti",Bagalkot,Bagalkote,"Baddur Surgical & Maternity Home,Banahatti, Bagalkot, Bagalkote, Karnataka, India",16.15531,75.821814
2,"Riti Lifecare Hospital,Mahalingapur",Bagalkot,Bagalkote,"Riti Lifecare Hospital,Mahalingapur, Bagalkot, Bagalkote, Karnataka, India",16.179199,75.699402
3,"Shakuntala Hospital And Preran Dental Clinic,New Railway Station",Bagalkot,Bagalkote,"Shakuntala Hospital And Preran Dental Clinic,New Railway Station, Bagalkot, Bagalkote, Karnataka, India",16.179199,75.699402
4,"Shri Venkateshwar Hospital,Ramdurga Road,Badami",Bagalkot,Bagalkote,"Shri Venkateshwar Hospital,Ramdurga Road,Badami, Bagalkot, Bagalkote, Karnataka, India",16.1863856,75.6952088
5,Manehospital (Multispecialitycentre) Nearrailwastation Bagalkot-587101,Bagalkot,Bagalkote,"Manehospital (Multispecialitycentre) Nearrailwastation Bagalkot-587101, Bagalkot, Bagalkote, Karnataka, India",16.179199,75.699402
6,"Vasanad Hospital,Near City Scan Centre,Bagalkot",Bagalkot,Bagalkote,"Vasanad Hospital,Near City Scan Centre,Bagalkot, Bagalkot, Bagalkote, Karnataka, India",16.173007,75.688378
7,"Parvatesh Hospital,Guledagudda",Bagalkot,Bagalkote,"Parvatesh Hospital,Guledagudda, Bagalkot, Bagalkote, Karnataka, India",16.179199,75.699402
8,"Venkatesh Hospital,Mahalingapur",Bagalkot,Bagalkote,"Venkatesh Hospital,Mahalingapur, Bagalkot, Bagalkote, Karnataka, India",16.179199,75.699402
9,"Shanti Hospital,Bagalkot",Bagalkot,Bagalkote,"Shanti Hospital,Bagalkot, Bagalkot, Bagalkote, Karnataka, India",16.18618,75.69522
10,"Murgod Health Centre,Opp Tmc Main Road,Mahalingapur",Bagalkot,Bagalkote,"Murgod Health Centre,Opp Tmc Main Road,Mahalingapur, Bagalkot, Bagalkote, Karnataka, India",15.888856,74.931386
11,Ashirwadhospital  Bagalkot.,Bagalkot,Bagalkote,"Ashirwadhospital  Bagalkot., Bagalkot, Bagalkote, Karnataka, India",16.177314,75.691304
12,"Telsang Maternity Hospital &Ultrasound Scanning Centre,Laxmi Nagar,Main Road,Bagalkot",Bagalkot,Bagalkote,"Telsang Maternity Hospital &Ultrasound Scanning Centre,Laxmi Nagar,Main Road,Bagalkot, Bagalkot, Bagalkote, Karnataka, India",16.170358,75.682279
13,"Dhanush Hospital,Bagalkot",Bagalkot,Bagalkote,"Dhanush Hospital,Bagalkot, Bagalkot, Bagalkote, Karnataka, India",16.179199,75.699402
14,S.N.Medical College Hsk Hospital  Navanagar.Bagakote,Bagalkot,Bagalkote,"S.N.Medical College Hsk Hospital  Navanagar.Bagakote, Bagalkot, Bagalkote, Karnataka, India",16.179199,75.699402
15,Kerudi Hospital Bagalkote,Bagalkot,Bagalkote,"Kerudi Hospital Bagalkote, Bagalkot, Bagalkote, Karnataka, India",16.172441,75.655643
16,Dr R.G Karudagimath Memorial Nursing Home Badami,Bagalkot,Bagalkote,"Dr R.G Karudagimath Memorial Nursing Home Badami, Bagalkot, Bagalkote, Karnataka, India",15.9187,75.680298
17,Belagali Nursing Home Mahalingapur.,Bagalkot,Bagalkote,"Belagali Nursing Home Mahalingapur., Bagalkot, Bagalkote, Karnataka, India",16.386191,75.15004
18,Bharatidevi Memorial Hospital.,Bagalkot,Bagalkote,"Bharatidevi Memorial Hospital., Bagalkot, Bagalkote, Karnataka, India",16.179199,75.699402
19,Nagathan Meternity Hospital Bagalkote,Bagalkot,Bagalkote,"Nagathan Meternity Hospital Bagalkote, Bagalkot, Bagalkote, Karnataka, India",16.18214,75.69764
20,Bhavi Hospital Bagalkote,Bagalkot,Bagalkote,"Bhavi Hospital Bagalkote, Bagalkot, Bagalkote, Karnataka, India",16.18336,75.70293
21,Chittaragi Hospital Rabakavi,Bagalkot,Bagalkote,"Chittaragi Hospital Rabakavi, Bagalkot, Bagalkote, Karnataka, India",16.472733,75.104969
22,"Shrinivas Nursing Home, Mahalingapur",Bagalkot,Bagalkote,"Shrinivas Nursing Home, Mahalingapur, Bagalkot, Bagalkote, Karnataka, India",16.384977,75.114065
23,Muragod Health Centre,Bagalkot,Bagalkote,"Muragod Health Centre, Bagalkot, Bagalkote, Karnataka, India",16.1865435,75.7061753
24,Kuntoji Hospital Bagalkote.,Bagalkot,Bagalkote,"Kuntoji Hospital Bagalkote., Bagalkot, Bagalkote, Karnataka, India",16.1871,75.6929
25,Kerudi Hospital Bagalkote.,Bagalkot,Bagalkote,"Kerudi Hospital Bagalkote., Bagalkot, Bagalkote, Karnataka, India",16.172441,75.655643
26,Saka Laproscopik Hospital  Ilakal.,Bagalkot,Bagalkote,"Saka Laproscopik Hospital  Ilakal., Bagalkot, Bagalkote, Karnataka, India",16.1846103,75.6927562
27,Shakuntala Multispeciality Hospital Bagalkote.,Bagalkot,Bagalkote,"Shakuntala Multispeciality Hospital Bagalkote., Bagalkot, Bagalkote, Karnataka, India",16.179758,75.698739
28,Akkimaradi Hospital.Anagavadi,Bagalkot,Bagalkote,"Akkimaradi Hospital.Anagavadi, Bagalkot, Bagalkote, Karnataka, India",16.260593,75.622026
29,Parvatesh Hospital Guledagudda.,Bagalkot,Bagalkote,"Parvatesh Hospital Guledagudda., Bagalkot, Bagalkote, Karnataka, India",16.179199,75.699402
30,Nara Meterniti Hospital Bagalkote.,Bagalkot,Bagalkote,"Nara Meterniti Hospital Bagalkote., Bagalkot, Bagalkote, Karnataka, India",16.179199,75.699402
31,Shanthi Hospital Bagalkote,Bagalkot,Bagalkote,"Shanthi Hospital Bagalkote, Bagalkot, Bagalkote, Karnataka, India",16.18618,75.69522
32,Vasanad Hospital Bagalkote,Bagalkot,Bagalkote,"Vasanad Hospital Bagalkote, Bagalkot, Bagalkote, Karnataka, India",16.173007,75.688378
33,Mane Hospital Bagalkote,Bagalkot,Bagalkote,"Mane Hospital Bagalkote, Bagalkot, Bagalkote, Karnataka, India",16.18673,75.69614
34,Riti Life Care Hospital Mahalingapur.,Bagalkot,Bagalkote,"Riti Life Care Hospital Mahalingapur., Bagalkot, Bagalkote, Karnataka, India",16.179199,75.699402
35,Nilugal Hospital Badami.,Bagalkot,Bagalkote,"Nilugal Hospital Badami., Bagalkot, Bagalkote, Karnataka, India",15.9250046,75.6781815
36,Kottureswara Maternity Home,Kampli,Ballari,"Kottureswara Maternity Home, Kampli, Ballari, Karnataka, India",15.4054651,76.6049837
37,"Sri.Sai Hospital , Toranagall",Sandur,Ballari,"Sri.Sai Hospital , Toranagall, Sandur, Ballari, Karnataka, India",15.1993002,76.6696156
38,"Jindal Sanjeevani Multi Sepciality Hospital, Toranagall",Sandur,Ballari,"Jindal Sanjeevani Multi Sepciality Hospital, Toranagall, Sandur, Ballari, Karnataka, India",15.19619,76.675914
39,Arogyadhama Hospital,Huvina Hadagali,Ballari,"Arogyadhama Hospital, Huvina Hadagali, Ballari, Karnataka, India",14.959,75.896
40,Anushka Hospital,Ballari,Ballari,"Anushka Hospital, Ballari, Ballari, Karnataka, India",15.1441542,76.9273894
41,Sri.Venkateshwara Hospital,Ballari,Ballari,"Sri.Venkateshwara Hospital, Ballari, Ballari, Karnataka, India",15.3444556,76.8345327
42,R.K.Hospital,Ballari,Ballari,"R.K.Hospital, Ballari, Ballari, Karnataka, India",15.1441542,76.9273894
43,Aradhana Hospital,Ballari,Ballari,"Aradhana Hospital, Ballari, Ballari, Karnataka, India",15.1573517,76.9378558
44,Shruthi Supeciality Hospital,Ballari,Ballari,"Shruthi Supeciality Hospital, Ballari, Ballari, Karnataka, India",15.1441542,76.9273894
45,Bharath Health Centre,Ballari,Ballari,"Bharath Health Centre, Ballari, Ballari, Karnataka, India",15.156854,76.9327226
46,Adarsh Nursing Home,Ballari,Ballari,"Adarsh Nursing Home, Ballari, Ballari, Karnataka, India",15.1536857,76.9335041
47,Amogha Nursing Home,Ballari,Ballari,"Amogha Nursing Home, Ballari, Ballari, Karnataka, India",15.1441542,76.9273894
48,Asha Hospital,Ballari,Ballari,"Asha Hospital, Ballari, Ballari, Karnataka, India",15.1441542,76.9273894
49,Sr Multi Speciality Hospital,Ballari,Ballari,"Sr Multi Speciality Hospital, Ballari, Ballari, Karnataka, India",15.1465882,76.9040614
50,Lv Nursing Home,Ballari,Ballari,"Lv Nursing Home, Ballari, Ballari, Karnataka, India",15.1530251,76.9280041
51,Madhuri Nursing Home,Ballari,Ballari,"Madhuri Nursing Home, Ballari, Ballari, Karnataka, India",15.1567433,76.9408191
52,Fpai,Ballari,Ballari,"Fpai, Ballari, Ballari, Karnataka, India",15.1441542,76.9273894
53,Shakti Nursing Home,Ballari,Ballari,"Shakti Nursing Home, Ballari, Ballari, Karnataka, India",15.1543716,76.928069
54,Chaitanya Hospital,Hosapete,Ballari,"Chaitanya Hospital, Hosapete, Ballari, Karnataka, India",15.26954,76.3871
55,Bellary Hrudayalaya,Ballari,Ballari,"Bellary Hrudayalaya, Ballari, Ballari, Karnataka, India",15.1388817,76.9768644
56,Sanjeevini Hospital,Kampli,Ballari,"Sanjeevini Hospital, Kampli, Ballari, Karnataka, India",15.1541997,76.9308112
57,Sri Balaji Nursing Home,Ballari,Ballari,"Sri Balaji Nursing Home, Ballari, Ballari, Karnataka, India",15.1551161,76.9282534
58,Sri.Dhanamma Super Speciality Hospital,Ballari,Ballari,"Sri.Dhanamma Super Speciality Hospital, Ballari, Ballari, Karnataka, India",15.1441542,76.9273894
59,Sri Ranga Hospital,Ballari,Ballari,"Sri Ranga Hospital, Ballari, Ballari, Karnataka, India",15.1441542,76.9273894
60,Amma Hospital,Ballari,Ballari,"Amma Hospital, Ballari, Ballari, Karnataka, India",15.1441542,76.9273894
61,Shiva Krupa Multi Speciality Hospital And Research Centre,Harapanahalli,Ballari,"Shiva Krupa Multi Speciality Hospital And Research Centre, Harapanahalli, Ballari, Karnataka, India",15.08037,76.35414
62,Priya Pathikonda Multispeciality Hospital,Harapanahalli,Ballari,"Priya Pathikonda Multispeciality Hospital, Harapanahalli, Ballari, Karnataka, India",15.08037,76.35414
63,Sri Raghavendra Sai Hospital,Siruguppa,Ballari,"Sri Raghavendra Sai Hospital, Siruguppa, Ballari, Karnataka, India",15.6334015,76.8947437
64,Balaji Maternity Home,Siruguppa,Ballari,"Balaji Maternity Home, Siruguppa, Ballari, Karnataka, India",15.6353,76.896004
65,Dr.Ramadevi Nursing Home,Siruguppa,Ballari,"Dr.Ramadevi Nursing Home, Siruguppa, Ballari, Karnataka, India",15.6353,76.896004
66,Srikari Hospital,Hosapete,Ballari,"Srikari Hospital, Hosapete, Ballari, Karnataka, India",15.26954,76.3871
67,Amara Jyothi Hospital,Hosapete,Ballari,"Amara Jyothi Hospital, Hosapete, Ballari, Karnataka, India",15.26954,76.3871
68,Sriraksha Hospital,Hosapete,Ballari,"Sriraksha Hospital, Hosapete, Ballari, Karnataka, India",15.26954,76.3871
69,Citi Hospital,Hosapete,Ballari,"Citi Hospital, Hosapete, Ballari, Karnataka, India",15.26954,76.3871
70,Gugri Nursing Home,Hosapete,Ballari,"Gugri Nursing Home, Hosapete, Ballari, Karnataka, India",15.26954,76.3871
71,Sri Vinayak Hospital,Hosapete,Ballari,"Sri Vinayak Hospital, Hosapete, Ballari, Karnataka, India",15.26954,76.3871
72,Srushruta Hospital,Hosapete,Ballari,"Srushruta Hospital, Hosapete, Ballari, Karnataka, India",15.26954,76.3871
73,Amareshwara Hospital,Hosapete,Ballari,"Amareshwara Hospital, Hosapete, Ballari, Karnataka, India",15.26954,76.3871
74,Dipali Hospital,Hosapete,Ballari,"Dipali Hospital, Hosapete, Ballari, Karnataka, India",15.26954,76.3871
75,Kls Hospital,Hosapete,Ballari,"Kls Hospital, Hosapete, Ballari, Karnataka, India",15.26954,76.3871
76,Abhishek Hospital,Hosapete,Ballari,"Abhishek Hospital, Hosapete, Ballari, Karnataka, India",15.26954,76.3871
77,Leena Multi Specaility Hospital,Devanahalli,Bengaluru Rural,"Leena Multi Specaility Hospital, Devanahalli, Bengaluru Rural, Karnataka, India",13.242605,77.7128199
78,Devanahalli Health Services,Devanahalli,Bengaluru Rural,"Devanahalli Health Services, Devanahalli, Bengaluru Rural, Karnataka, India",13.2417527,77.7031204
79,Suraksha Health Services,Devanahalli,Bengaluru Rural,"Suraksha Health Services, Devanahalli, Bengaluru Rural, Karnataka, India",13.2430894,77.7048978
80,Dhruva Nursing Home,Hosakote,Bengaluru Rural,"Dhruva Nursing Home, Hosakote, Bengaluru Rural, Karnataka, India",13.0721692,77.7922176
81,M S Ramaiah Harsha Hospital,Nelamangala,Bengaluru Rural,"M S Ramaiah Harsha Hospital, Nelamangala, Bengaluru Rural, Karnataka, India",13.1019659,77.3884145
82,Sri Rav'S Somashekhar Hospital,Nelamangala,Bengaluru Rural,"Sri Rav'S Somashekhar Hospital, Nelamangala, Bengaluru Rural, Karnataka, India",13.1019659,77.3884145
83,Sharada Hospital,Nelamangala,Bengaluru Rural,"Sharada Hospital, Nelamangala, Bengaluru Rural, Karnataka, India",13.0969283,77.3973372
84,New Manasa Hospital,Devanahalli,Bengaluru Rural,"New Manasa Hospital, Devanahalli, Bengaluru Rural, Karnataka, India",13.2485966,77.7160664
85,Nandi Multi Speciality Hospital,Dodda Ballapur,Bengaluru Rural,"Nandi Multi Speciality Hospital, Dodda Ballapur, Bengaluru Rural, Karnataka, India",13.305089,77.545201
86,Manasa Hospital,Dodda Ballapur,Bengaluru Rural,"Manasa Hospital, Dodda Ballapur, Bengaluru Rural, Karnataka, India",13.3036185,77.5444552
87,Sri Ganga Bhagath Singh Chandra Shekhar Azad Hospital,Dodda Ballapur,Bengaluru Rural,"Sri Ganga Bhagath Singh Chandra Shekhar Azad Hospital, Dodda Ballapur, Bengaluru Rural, Karnataka, India",13.282446,77.550139
88,Sri Rama Hospital,Dodda Ballapur,Bengaluru Rural,"Sri Rama Hospital, Dodda Ballapur, Bengaluru Rural, Karnataka, India",13.29209,77.54174
89,Sarathi Puttaspathre,Dodda Ballapur,Bengaluru Rural,"Sarathi Puttaspathre, Dodda Ballapur, Bengaluru Rural, Karnataka, India",13.3066213,77.5421965
90,Columbia Asia Hospital,Dodda Ballapur,Bengaluru Rural,"Columbia Asia Hospital, Dodda Ballapur, Bengaluru Rural, Karnataka, India",13.2973,77.538399
91,Ovum Nicu Hospital,Hosakote,Bengaluru Rural,"Ovum Nicu Hospital, Hosakote, Bengaluru Rural, Karnataka, India",13.0721692,77.7922176
92,Siliconcity Hospitals,Hosakote,Bengaluru Rural,"Siliconcity Hospitals, Hosakote, Bengaluru Rural, Karnataka, India",13.068656,77.781311
93,Shreyas Maternity Home,Hosakote,Bengaluru Rural,"Shreyas Maternity Home, Hosakote, Bengaluru Rural, Karnataka, India",13.0745111,77.7820636
94,Shivapriya Maternity Home,Hosakote,Bengaluru Rural,"Shivapriya Maternity Home, Hosakote, Bengaluru Rural, Karnataka, India",13.0729023,77.7855366
95,Lakshmi Hospital,Bengaluru North,Bengaluru Urban,"Lakshmi Hospital, Bengaluru North, Bengaluru Urban, Karnataka, India",13.0248956,77.5920463
97,Republic Hospital,Bengaluru North,Bengaluru Urban,"Republic Hospital, Bengaluru North, Bengaluru Urban, Karnataka, India",12.964109,77.598143
98,Jyothi Nursing And Maternity Home,Bengaluru North,Bengaluru Urban,"Jyothi Nursing And Maternity Home, Bengaluru North, Bengaluru Urban, Karnataka, India",12.9578853,77.5337734
99,Vijayashree Hospitals,Bengaluru North,Bengaluru Urban,"Vijayashree Hospitals, Bengaluru North, Bengaluru Urban, Karnataka, India",12.8578496,77.589288
100,Vitals Diagnostic And Day Care,Bengaluru North,Bengaluru Urban,"Vitals Diagnostic And Day Care, Bengaluru North, Bengaluru Urban, Karnataka, India",12.8117615,77.5042934
103,Athreya Hospital,Bengaluru North,Bengaluru Urban,"Athreya Hospital, Bengaluru North, Bengaluru Urban, Karnataka, India",13.0267381,77.6394104
104,Nagappa Hadli Hospital,Bengaluru North,Bengaluru Urban,"Nagappa Hadli Hospital, Bengaluru North, Bengaluru Urban, Karnataka, India",12.8117615,77.5042934
105,Amma Hospital,Bengaluru North,Bengaluru Urban,"Amma Hospital, Bengaluru North, Bengaluru Urban, Karnataka, India",12.7097741,77.6981943
106,Ovum Hospitals,Bengaluru North,Bengaluru Urban,"Ovum Hospitals, Bengaluru North, Bengaluru Urban, Karnataka, India",13.0267381,77.6394104
107,Dr.Sunny Medical Centre,Bengaluru North,Bengaluru Urban,"Dr.Sunny Medical Centre, Bengaluru North, Bengaluru Urban, Karnataka, India",12.9269332,77.669889
108,Womens Speaciality Polyclinic And Diagnostic Center,Bengaluru North,Bengaluru Urban,"Womens Speaciality Polyclinic And Diagnostic Center, Bengaluru North, Bengaluru Urban, Karnataka, India",13.0031528,77.6686816
109,Sri Laxmi Hospital,Bengaluru North,Bengaluru Urban,"Sri Laxmi Hospital, Bengaluru North, Bengaluru Urban, Karnataka, India",12.8503749,77.6553109
110,Anuraadha Womens Clinic,Bengaluru North,Bengaluru Urban,"Anuraadha Womens Clinic, Bengaluru North, Bengaluru Urban, Karnataka, India",13.0378873,77.5741337
111,Varshi Clinic,Bengaluru North,Bengaluru Urban,"Varshi Clinic, Bengaluru North, Bengaluru Urban, Karnataka, India",12.9990616,77.4425728
112,Bhagwan Mahaveer Jain Hospital,Bengaluru North,Bengaluru Urban,"Bhagwan Mahaveer Jain Hospital, Bengaluru North, Bengaluru Urban, Karnataka, India",12.994858,77.593553
113,Optima Arthritis And Rheumatology Clinic,Bengaluru North,Bengaluru Urban,"Optima Arthritis And Rheumatology Clinic, Bengaluru North, Bengaluru Urban, Karnataka, India",12.8117615,77.5042934
114,Apollo Clinic Bellandur,Bengaluru North,Bengaluru Urban,"Apollo Clinic Bellandur, Bengaluru North, Bengaluru Urban, Karnataka, India",12.926274,77.676561
115,Apollo Medical Centre A Unit Of Ahll,Bengaluru North,Bengaluru Urban,"Apollo Medical Centre A Unit Of Ahll, Bengaluru North, Bengaluru Urban, Karnataka, India",12.934007,77.616279
116,Apollo Clinic Hsr Layout,Bengaluru North,Bengaluru Urban,"Apollo Clinic Hsr Layout, Bengaluru North, Bengaluru Urban, Karnataka, India",12.9131296,77.6367263
117,Apollo Health And Lifestyle Limited,Bengaluru North,Bengaluru Urban,"Apollo Health And Lifestyle Limited, Bengaluru North, Bengaluru Urban, Karnataka, India",12.8117615,77.5042934
118,"Apollo Medical Centre A Unit Od Apollo Health And Life Style Ltd 673/A Varthur Main Road, Near Kundalahalli Signal Opp Sriram Samrudhi Apts,Whitefield, Bangalore 560066",Bengaluru North,Bengaluru Urban,"Apollo Medical Centre A Unit Od Apollo Health And Life Style Ltd 673/A Varthur Main Road, Near Kundalahalli Signal Opp Sriram Samrudhi Apts,Whitefield, Bangalore 560066, Bengaluru North, Bengaluru Urban, Karnataka, India",12.95267375,77.74423337
119,Apollo Clinic Electronic City,Bengaluru North,Bengaluru Urban,"Apollo Clinic Electronic City, Bengaluru North, Bengaluru Urban, Karnataka, India",12.8478071,77.6631929
120,Apollo Clinic A Unit Of Apollo Health And Lifestyle Limited,Bengaluru North,Bengaluru Urban,"Apollo Clinic A Unit Of Apollo Health And Lifestyle Limited, Bengaluru North, Bengaluru Urban, Karnataka, India",12.8117615,77.5042934
121,Apollo Clinic,Bengaluru North,Bengaluru Urban,"Apollo Clinic, Bengaluru North, Bengaluru Urban, Karnataka, India",12.926274,77.676561
124,Rajashri Grandhim Speciality Hospital,Bengaluru North,Bengaluru Urban,"Rajashri Grandhim Speciality Hospital, Bengaluru North, Bengaluru Urban, Karnataka, India",12.895332,77.607624
125,Optima Arthritis Rheumatology Clinic,Bengaluru North,Bengaluru Urban,"Optima Arthritis Rheumatology Clinic, Bengaluru North, Bengaluru Urban, Karnataka, India",12.8117615,77.5042934
126,Health Plus Diagnostic And Poly Clinic,Bengaluru North,Bengaluru Urban,"Health Plus Diagnostic And Poly Clinic, Bengaluru North, Bengaluru Urban, Karnataka, India",13.0218874,77.6993843
127,Sagar Chandramma Hospitals,Bengaluru North,Bengaluru Urban,"Sagar Chandramma Hospitals, Bengaluru North, Bengaluru Urban, Karnataka, India",12.9484614,77.574725
128,Aditi Hospital,Bengaluru North,Bengaluru Urban,"Aditi Hospital, Bengaluru North, Bengaluru Urban, Karnataka, India",12.708861,77.698587
129,Akeso Health Care Pvt Ltd,Bengaluru North,Bengaluru Urban,"Akeso Health Care Pvt Ltd, Bengaluru North, Bengaluru Urban, Karnataka, India",12.9226558,77.571882
130,Sunny Medical Centre,Bengaluru North,Bengaluru Urban,"Sunny Medical Centre, Bengaluru North, Bengaluru Urban, Karnataka, India",12.9269332,77.669889
131,Vagus Super Speciality Hospital Pvt Ltd,Bengaluru North,Bengaluru Urban,"Vagus Super Speciality Hospital Pvt Ltd, Bengaluru North, Bengaluru Urban, Karnataka, India",13.008473,77.568338
132,Dr.Ramesh Hospital,Bengaluru North,Bengaluru Urban,"Dr.Ramesh Hospital, Bengaluru North, Bengaluru Urban, Karnataka, India",12.9067767,77.5634331
133,Kids Clinic India Private Limited,Bengaluru North,Bengaluru Urban,"Kids Clinic India Private Limited, Bengaluru North, Bengaluru Urban, Karnataka, India",12.8117615,77.5042934
135,Saraswathi Poly Clinic,Bengaluru North,Bengaluru Urban,"Saraswathi Poly Clinic, Bengaluru North, Bengaluru Urban, Karnataka, India",13.1001942,77.5955124
136,Devagiri Multyspeciality Surgical Center,Bengaluru North,Bengaluru Urban,"Devagiri Multyspeciality Surgical Center, Bengaluru North, Bengaluru Urban, Karnataka, India",12.8117615,77.5042934
137,Acharya Tulsi Jain Hospital,Bengaluru North,Bengaluru Urban,"Acharya Tulsi Jain Hospital, Bengaluru North, Bengaluru Urban, Karnataka, India",13.0218319,77.5568188
138,C R Medical Center,Bengaluru North,Bengaluru Urban,"C R Medical Center, Bengaluru North, Bengaluru Urban, Karnataka, India",12.97747,77.57566
139,Sanjeevini Specialyty Health Care And Diagnostic Center,Bengaluru North,Bengaluru Urban,"Sanjeevini Specialyty Health Care And Diagnostic Center, Bengaluru North, Bengaluru Urban, Karnataka, India",12.910683,77.521065
140,Sriraksha Health And Clinical Lab,Bengaluru North,Bengaluru Urban,"Sriraksha Health And Clinical Lab, Bengaluru North, Bengaluru Urban, Karnataka, India",13.0171489,77.71076956
141,Eswar Women And Day Care Hospital,Bengaluru North,Bengaluru Urban,"Eswar Women And Day Care Hospital, Bengaluru North, Bengaluru Urban, Karnataka, India",13.065872,77.599336
142,Nyak Hospitala,Bengaluru North,Bengaluru Urban,"Nyak Hospitala, Bengaluru North, Bengaluru Urban, Karnataka, India",13.0267381,77.6394104
143,Cm Fertility Centre Group Of Cm Gynaec Research Associates,Bengaluru North,Bengaluru Urban,"Cm Fertility Centre Group Of Cm Gynaec Research Associates, Bengaluru North, Bengaluru Urban, Karnataka, India",12.8117615,77.5042934
144,Acharya Tulasi Jain Hospital,Bengaluru North,Bengaluru Urban,"Acharya Tulasi Jain Hospital, Bengaluru North, Bengaluru Urban, Karnataka, India",13.0218319,77.5568188
145,Bhagavan Mahaveer Jain Hospital,Bengaluru North,Bengaluru Urban,"Bhagavan Mahaveer Jain Hospital, Bengaluru North, Bengaluru Urban, Karnataka, India",12.944151,77.537051
146,Nandi Clinic,Bengaluru North,Bengaluru Urban,"Nandi Clinic, Bengaluru North, Bengaluru Urban, Karnataka, India",13.0555036,77.6082784
147,Bhavana Nursing Home,Bengaluru North,Bengaluru Urban,"Bhavana Nursing Home, Bengaluru North, Bengaluru Urban, Karnataka, India",12.7102261,77.6995575
148,Kids Clinic India Pravite Limited,Bengaluru North,Bengaluru Urban,"Kids Clinic India Pravite Limited, Bengaluru North, Bengaluru Urban, Karnataka, India",12.8117615,77.5042934
149,Kids Clinic India Pvt Ltd,Bengaluru North,Bengaluru Urban,"Kids Clinic India Pvt Ltd, Bengaluru North, Bengaluru Urban, Karnataka, India",12.8117615,77.5042934
150,Shushrusha Clinic,Bengaluru North,Bengaluru Urban,"Shushrusha Clinic, Bengaluru North, Bengaluru Urban, Karnataka, India",13.0629537,77.5722652
151,Geetha Maternity And Surgical Centre,Bengaluru North,Bengaluru Urban,"Geetha Maternity And Surgical Centre, Bengaluru North, Bengaluru Urban, Karnataka, India",12.9223326,77.5202203
152,Venues Hospital,Bengaluru North,Bengaluru Urban,"Venues Hospital, Bengaluru North, Bengaluru Urban, Karnataka, India",12.9720843,77.6807775
153,Anjani Womens Day Care Hospital,Bengaluru North,Bengaluru Urban,"Anjani Womens Day Care Hospital, Bengaluru North, Bengaluru Urban, Karnataka, India",13.018839,77.647172
155,Women Speciyality,Bengaluru North,Bengaluru Urban,"Women Speciyality, Bengaluru North, Bengaluru Urban, Karnataka, India",13.0259404,77.6670331
156,Sri Srinivasa Nursing Home,Bengaluru North,Bengaluru Urban,"Sri Srinivasa Nursing Home, Bengaluru North, Bengaluru Urban, Karnataka, India",12.9965567,77.6220219
157,Sharada Diaganostic Center,Bengaluru North,Bengaluru Urban,"Sharada Diaganostic Center, Bengaluru North, Bengaluru Urban, Karnataka, India",12.9902,77.519651
158,Kids Clinic India Pvt Ltd Cloudnine Hospital,Bengaluru North,Bengaluru Urban,"Kids Clinic India Pvt Ltd Cloudnine Hospital, Bengaluru North, Bengaluru Urban, Karnataka, India",12.9879688,77.7319753
159,Sri Ram Nursing Home,Bengaluru North,Bengaluru Urban,"Sri Ram Nursing Home, Bengaluru North, Bengaluru Urban, Karnataka, India",12.94315798,77.586944
161,Lsis Medicare And Research Center,Bengaluru North,Bengaluru Urban,"Lsis Medicare And Research Center, Bengaluru North, Bengaluru Urban, Karnataka, India",13.0268548,77.6227841
162,Essentialhospital,Bengaluru North,Bengaluru Urban,"Essentialhospital, Bengaluru North, Bengaluru Urban, Karnataka, India",12.9749016,77.5095487
163,Aryan Multi Speciality Hospital,Bengaluru North,Bengaluru Urban,"Aryan Multi Speciality Hospital, Bengaluru North, Bengaluru Urban, Karnataka, India",12.9190968,77.6382137
164,Lakshmi Nursing Home,Bengaluru North,Bengaluru Urban,"Lakshmi Nursing Home, Bengaluru North, Bengaluru Urban, Karnataka, India",12.9411455,77.74623
166,Jeevika Hosptials Pvt Ltd,Bengaluru North,Bengaluru Urban,"Jeevika Hosptials Pvt Ltd, Bengaluru North, Bengaluru Urban, Karnataka, India",12.965949,77.702566
167,Bharath Nursing Home,Bengaluru North,Bengaluru Urban,"Bharath Nursing Home, Bengaluru North, Bengaluru Urban, Karnataka, India",12.9317886,77.5758846
168,Subbiah Hospital,Bengaluru North,Bengaluru Urban,"Subbiah Hospital, Bengaluru North, Bengaluru Urban, Karnataka, India",13.029976,77.5605068
169,P.M.Santosha Hospital (Unit Of P.M.Santosha Charitable Hospital),Bengaluru North,Bengaluru Urban,"P.M.Santosha Hospital (Unit Of P.M.Santosha Charitable Hospital), Bengaluru North, Bengaluru Urban, Karnataka, India",12.8117615,77.5042934
170,Bhoomi Diagnostics Center,Bengaluru North,Bengaluru Urban,"Bhoomi Diagnostics Center, Bengaluru North, Bengaluru Urban, Karnataka, India",12.8117615,77.5042934
171,Bhoomi Diagnostics,Bengaluru North,Bengaluru Urban,"Bhoomi Diagnostics, Bengaluru North, Bengaluru Urban, Karnataka, India",12.8117615,77.5042934
173,Excelcare Hospita  A Unit Of Excelcare Health Alliance Llp,Bengaluru North,Bengaluru Urban,"Excelcare Hospita  A Unit Of Excelcare Health Alliance Llp, Bengaluru North, Bengaluru Urban, Karnataka, India",12.8117615,77.5042934
174,Narayana Multispeciality Hospital Whitefield,Bengaluru North,Bengaluru Urban,"Narayana Multispeciality Hospital Whitefield, Bengaluru North, Bengaluru Urban, Karnataka, India",12.9081999,77.6435264
175,Altius Hospital Pvt Ltd    A Unit Of Dr.Ramesh Hospital,Bengaluru North,Bengaluru Urban,"Altius Hospital Pvt Ltd    A Unit Of Dr.Ramesh Hospital, Bengaluru North, Bengaluru Urban, Karnataka, India",12.8117615,77.5042934
176,Narayana Multispeciality Hospital,Bengaluru North,Bengaluru Urban,"Narayana Multispeciality Hospital, Bengaluru North, Bengaluru Urban, Karnataka, India",12.9081999,77.6435264
177,Care Woman And Childrens Clinic,Bengaluru North,Bengaluru Urban,"Care Woman And Childrens Clinic, Bengaluru North, Bengaluru Urban, Karnataka, India",12.930236,77.6068856
179,Narayana Medical Center,Bengaluru North,Bengaluru Urban,"Narayana Medical Center, Bengaluru North, Bengaluru Urban, Karnataka, India",12.956731,77.605643
180,Chirag Hospital,Bengaluru North,Bengaluru Urban,"Chirag Hospital, Bengaluru North, Bengaluru Urban, Karnataka, India",12.9125951,77.5914127
182,Rashmi Hospital,Bengaluru North,Bengaluru Urban,"Rashmi Hospital, Bengaluru North, Bengaluru Urban, Karnataka, India",12.976816,77.636291
184,Sree Lakshmi Hospital,Bengaluru North,Bengaluru Urban,"Sree Lakshmi Hospital, Bengaluru North, Bengaluru Urban, Karnataka, India",12.881217,77.751651
185,Shraddha Healthcare And Nursing,Bengaluru North,Bengaluru Urban,"Shraddha Healthcare And Nursing, Bengaluru North, Bengaluru Urban, Karnataka, India",12.8117615,77.5042934
186,Ganga Speciality Hospital,Bengaluru North,Bengaluru Urban,"Ganga Speciality Hospital, Bengaluru North, Bengaluru Urban, Karnataka, India",12.709624,77.701376
187,Altius Hospital,Bengaluru North,Bengaluru Urban,"Altius Hospital, Bengaluru North, Bengaluru Urban, Karnataka, India",12.984804,77.557078
188,Sushila Mathrutva Clinic,Bengaluru North,Bengaluru Urban,"Sushila Mathrutva Clinic, Bengaluru North, Bengaluru Urban, Karnataka, India",12.9224558,77.5497481
189,Usha Specialty Clinic,Bengaluru North,Bengaluru Urban,"Usha Specialty Clinic, Bengaluru North, Bengaluru Urban, Karnataka, India",12.9943678,77.610452
190,K K Hospital,Bengaluru North,Bengaluru Urban,"K K Hospital, Bengaluru North, Bengaluru Urban, Karnataka, India",13.0267381,77.6394104
192,Deepasri Multispecialities Hospital,Bengaluru North,Bengaluru Urban,"Deepasri Multispecialities Hospital, Bengaluru North, Bengaluru Urban, Karnataka, India",12.8697219,77.5820703
193,Mithr Womens Health,Bengaluru North,Bengaluru Urban,"Mithr Womens Health, Bengaluru North, Bengaluru Urban, Karnataka, India",12.8117615,77.5042934
194,Dr. Varmas Jyothi Prasad Nursing Home Pvt Ltd,Bengaluru North,Bengaluru Urban,"Dr. Varmas Jyothi Prasad Nursing Home Pvt Ltd, Bengaluru North, Bengaluru Urban, Karnataka, India",12.8117615,77.5042934
195,Sakra Premium Clinic,Bengaluru North,Bengaluru Urban,"Sakra Premium Clinic, Bengaluru North, Bengaluru Urban, Karnataka, India",12.914326,77.677423
196,Khushi Fertility And Ivf Centre,Bengaluru North,Bengaluru Urban,"Khushi Fertility And Ivf Centre, Bengaluru North, Bengaluru Urban, Karnataka, India",12.8117615,77.5042934
197,Kamadhenu Hospitals India Pvt Ltd,Bengaluru North,Bengaluru Urban,"Kamadhenu Hospitals India Pvt Ltd, Bengaluru North, Bengaluru Urban, Karnataka, India",12.880792,77.645426
198,Sakra Premium Clinic A Unit Of Takshasila Hospitals Operating Private Limited,Bengaluru North,Bengaluru Urban,"Sakra Premium Clinic A Unit Of Takshasila Hospitals Operating Private Limited, Bengaluru North, Bengaluru Urban, Karnataka, India",12.8117615,77.5042934
199,Care & Cure Fertility,Bengaluru North,Bengaluru Urban,"Care & Cure Fertility, Bengaluru North, Bengaluru Urban, Karnataka, India",12.8117615,77.5042934
201,Motherhood Anjana Women And Childrens Clinic. A Unit Of Rhea Healthcare Pvt Ltd,Bengaluru North,Bengaluru Urban,"Motherhood Anjana Women And Childrens Clinic. A Unit Of Rhea Healthcare Pvt Ltd, Bengaluru North, Bengaluru Urban, Karnataka, India",12.8117615,77.5042934
202,Zion Hospitals And Research Centre Pvt. Ltd,Bengaluru North,Bengaluru Urban,"Zion Hospitals And Research Centre Pvt. Ltd, Bengaluru North, Bengaluru Urban, Karnataka, India",12.9704689,77.5561925
203,Kangaroo Woman And  Child Care,Bengaluru North,Bengaluru Urban,"Kangaroo Woman And  Child Care, Bengaluru North, Bengaluru Urban, Karnataka, India",12.8117615,77.5042934
205,Kshema  Hospital,Bengaluru North,Bengaluru Urban,"Kshema  Hospital, Bengaluru North, Bengaluru Urban, Karnataka, India",12.8967848,77.7192427
207,Shree Krishna Clinic,Bengaluru North,Bengaluru Urban,"Shree Krishna Clinic, Bengaluru North, Bengaluru Urban, Karnataka, India",13.0516732,77.6923903
209,Mathru Hospital,Bengaluru North,Bengaluru Urban,"Mathru Hospital, Bengaluru North, Bengaluru Urban, Karnataka, India",12.8826327,77.5462114
210,Srinivasa Nursing Home,Bengaluru North,Bengaluru Urban,"Srinivasa Nursing Home, Bengaluru North, Bengaluru Urban, Karnataka, India",13.0223829,77.5200244
211,Kamadhenu Hospital,Bengaluru North,Bengaluru Urban,"Kamadhenu Hospital, Bengaluru North, Bengaluru Urban, Karnataka, India",12.9754892,77.5349906
212,Asha Nursing Home,Bengaluru North,Bengaluru Urban,"Asha Nursing Home, Bengaluru North, Bengaluru Urban, Karnataka, India",13.0135129,77.6604188
213,Garbhagudi Ivf Centre Pvt.Ltd,Bengaluru North,Bengaluru Urban,"Garbhagudi Ivf Centre Pvt.Ltd, Bengaluru North, Bengaluru Urban, Karnataka, India",12.9416008,77.5564892
214,Garbhagudi Ivf Centre Pvt Ltd,Bengaluru North,Bengaluru Urban,"Garbhagudi Ivf Centre Pvt Ltd, Bengaluru North, Bengaluru Urban, Karnataka, India",12.9416008,77.5564892
217,New Janapriya Super Speciality Hospital    A Unit Of Audikesh Hospitals Private Limited,Bengaluru North,Bengaluru Urban,"New Janapriya Super Speciality Hospital    A Unit Of Audikesh Hospitals Private Limited, Bengaluru North, Bengaluru Urban, Karnataka, India",12.8117615,77.5042934
219,Krushna,Bengaluru North,Bengaluru Urban,"Krushna, Bengaluru North, Bengaluru Urban, Karnataka, India",13.09299362,77.45501147
220,Devaki Nursign Home,Bengaluru North,Bengaluru Urban,"Devaki Nursign Home, Bengaluru North, Bengaluru Urban, Karnataka, India",12.8117615,77.5042934
221,Devaki,Bengaluru North,Bengaluru Urban,"Devaki, Bengaluru North, Bengaluru Urban, Karnataka, India",12.92283698,77.55527767
222,Raksha Orthopedic And Multispeciality Centre,Bengaluru North,Bengaluru Urban,"Raksha Orthopedic And Multispeciality Centre, Bengaluru North, Bengaluru Urban, Karnataka, India",12.8117615,77.5042934
223,Elite Hospital,Bengaluru North,Bengaluru Urban,"Elite Hospital, Bengaluru North, Bengaluru Urban, Karnataka, India",12.781571,77.771401
224,Sri Srinivasa Clinic Endoscopy And Daycare Centre,Bengaluru North,Bengaluru Urban,"Sri Srinivasa Clinic Endoscopy And Daycare Centre, Bengaluru North, Bengaluru Urban, Karnataka, India",12.926286,77.554831
226,Sri Lakshmi Multi Speciality Hospital,Bengaluru North,Bengaluru Urban,"Sri Lakshmi Multi Speciality Hospital, Bengaluru North, Bengaluru Urban, Karnataka, India",12.988129,77.508677
227,Rays Scans And Lab Clinics Pvt Ltd,Bengaluru North,Bengaluru Urban,"Rays Scans And Lab Clinics Pvt Ltd, Bengaluru North, Bengaluru Urban, Karnataka, India",12.9359075,77.6171179
228,Apollo Specialty Hospital Private Limited,Bengaluru North,Bengaluru Urban,"Apollo Specialty Hospital Private Limited, Bengaluru North, Bengaluru Urban, Karnataka, India",13.008473,77.568338
229,Valenshospitals Llp,Bengaluru North,Bengaluru Urban,"Valenshospitals Llp, Bengaluru North, Bengaluru Urban, Karnataka, India",12.8117615,77.5042934
230,Gayathri Hospital Pvt.Ltd,Bengaluru North,Bengaluru Urban,"Gayathri Hospital Pvt.Ltd, Bengaluru North, Bengaluru Urban, Karnataka, India",12.9742632,77.5426818
231,The Genesis Women And Child Health Care,Bengaluru North,Bengaluru Urban,"The Genesis Women And Child Health Care, Bengaluru North, Bengaluru Urban, Karnataka, India",13.093254,77.583699
232,Sevakshetra Hospital Unit Of Canara Bank Relief & Welfare Society,Bengaluru North,Bengaluru Urban,"Sevakshetra Hospital Unit Of Canara Bank Relief & Welfare Society, Bengaluru North, Bengaluru Urban, Karnataka, India",12.8117615,77.5042934
233,Sri Sri College Of Ayurvedic Science And Research Hospital,Bengaluru North,Bengaluru Urban,"Sri Sri College Of Ayurvedic Science And Research Hospital, Bengaluru North, Bengaluru Urban, Karnataka, India",12.822284,77.521075
234,"Marvel Multispeciality Hospital  A Unit Of Sankeerthana Hospitals Pvt.Ltd.,",Bengaluru North,Bengaluru Urban,"Marvel Multispeciality Hospital  A Unit Of Sankeerthana Hospitals Pvt.Ltd.,, Bengaluru North, Bengaluru Urban, Karnataka, India",12.8117615,77.5042934
238,Anupama Hospital,Bengaluru North,Bengaluru Urban,"Anupama Hospital, Bengaluru North, Bengaluru Urban, Karnataka, India",12.9832434,77.4787185
239,Janapriya Hospitals Healthcare,Bengaluru North,Bengaluru Urban,"Janapriya Hospitals Healthcare, Bengaluru North, Bengaluru Urban, Karnataka, India",13.009037,77.643684
240,Columbia Asia Hospital,Bengaluru North,Bengaluru Urban,"Columbia Asia Hospital, Bengaluru North, Bengaluru Urban, Karnataka, India",13.0509741,77.5933952
242,North Bangalore Hospital,Bengaluru North,Bengaluru Urban,"North Bangalore Hospital, Bengaluru North, Bengaluru Urban, Karnataka, India",13.0267381,77.6394104
243,Pragathi Nursing Home,Bengaluru North,Bengaluru Urban,"Pragathi Nursing Home, Bengaluru North, Bengaluru Urban, Karnataka, India",12.99884,77.5462736
244,Padmashree Nursing And Maternity Home,Bengaluru North,Bengaluru Urban,"Padmashree Nursing And Maternity Home, Bengaluru North, Bengaluru Urban, Karnataka, India",12.9497855,77.5271479
245,Yashomati Hospitals Pvt.Ltd.,Bengaluru North,Bengaluru Urban,"Yashomati Hospitals Pvt.Ltd., Bengaluru North, Bengaluru Urban, Karnataka, India",12.955722,77.711254
246,Ideal Nursing Home And Research Centre,Bengaluru North,Bengaluru Urban,"Ideal Nursing Home And Research Centre, Bengaluru North, Bengaluru Urban, Karnataka, India",12.8117615,77.5042934
247,Nano Hospitals,Bengaluru North,Bengaluru Urban,"Nano Hospitals, Bengaluru North, Bengaluru Urban, Karnataka, India",12.881008,77.610222
248,Kangaroo Care Hospital A Unit Of Surabhi Healthcare And Research Pvt.Ltd.,Bengaluru North,Bengaluru Urban,"Kangaroo Care Hospital A Unit Of Surabhi Healthcare And Research Pvt.Ltd., Bengaluru North, Bengaluru Urban, Karnataka, India",12.8117615,77.5042934
249,Meghana Nursing And Maternity Home,Bengaluru North,Bengaluru Urban,"Meghana Nursing And Maternity Home, Bengaluru North, Bengaluru Urban, Karnataka, India",12.9941024,77.7177191
250,Pan Nagarabhavi Hospitals Pvt Ltd,Bengaluru North,Bengaluru Urban,"Pan Nagarabhavi Hospitals Pvt Ltd, Bengaluru North, Bengaluru Urban, Karnataka, India",12.9731811,77.5113754
252,Alvas Health Centre,Bengaluru North,Bengaluru Urban,"Alvas Health Centre, Bengaluru North, Bengaluru Urban, Karnataka, India",12.9589,77.6587
253,Motherhood Hospital  A Unit Of Rhea Healthcare Private Limited,Bengaluru North,Bengaluru Urban,"Motherhood Hospital  A Unit Of Rhea Healthcare Private Limited, Bengaluru North, Bengaluru Urban, Karnataka, India",12.8117615,77.5042934
256,Usha Vikranth Diagnostic And Hospital,Bengaluru North,Bengaluru Urban,"Usha Vikranth Diagnostic And Hospital, Bengaluru North, Bengaluru Urban, Karnataka, India",12.9138448,77.5273236
258,Motherhood Hospital A Unit Of Reha Health Care,Bengaluru North,Bengaluru Urban,"Motherhood Hospital A Unit Of Reha Health Care, Bengaluru North, Bengaluru Urban, Karnataka, India",12.860475,77.780236
260,Kanva Sri Sai Hospital,Bengaluru North,Bengaluru Urban,"Kanva Sri Sai Hospital, Bengaluru North, Bengaluru Urban, Karnataka, India",13.0175632,77.5395166
261,Aaxis Super Speciality Hospital,Bengaluru North,Bengaluru Urban,"Aaxis Super Speciality Hospital, Bengaluru North, Bengaluru Urban, Karnataka, India",13.070628,77.502344
262,Aaxis Hospitals,Bengaluru North,Bengaluru Urban,"Aaxis Hospitals, Bengaluru North, Bengaluru Urban, Karnataka, India",13.0060844,77.7568792
263,Iaim Healthcare Center,Bengaluru North,Bengaluru Urban,"Iaim Healthcare Center, Bengaluru North, Bengaluru Urban, Karnataka, India",12.997883,77.543726
265,Pavan Hospital,Bengaluru North,Bengaluru Urban,"Pavan Hospital, Bengaluru North, Bengaluru Urban, Karnataka, India",13.098149,77.596147
266,Sakhii Hospital  A Unit Of Healthcare Services,Bengaluru North,Bengaluru Urban,"Sakhii Hospital  A Unit Of Healthcare Services, Bengaluru North, Bengaluru Urban, Karnataka, India",12.90539818,77.603295
267,Sakhii Hospital(A Unit Of Prasad Health Care Services),Bengaluru North,Bengaluru Urban,"Sakhii Hospital(A Unit Of Prasad Health Care Services), Bengaluru North, Bengaluru Urban, Karnataka, India",12.90539818,77.603295
269,Supurva Hospitals Private Limited,Bengaluru North,Bengaluru Urban,"Supurva Hospitals Private Limited, Bengaluru North, Bengaluru Urban, Karnataka, India",12.990269,77.573099
271,Divakars Speciality Hospital,Bengaluru North,Bengaluru Urban,"Divakars Speciality Hospital, Bengaluru North, Bengaluru Urban, Karnataka, India",12.9564531,77.5829154
273,Kamath Multicare Clinic,Bengaluru North,Bengaluru Urban,"Kamath Multicare Clinic, Bengaluru North, Bengaluru Urban, Karnataka, India",13.0025474,77.6347781
275,Essential Hospital,Bengaluru North,Bengaluru Urban,"Essential Hospital, Bengaluru North, Bengaluru Urban, Karnataka, India",12.9749016,77.5095487
276,Sri Sai Krupa Hospital,Bengaluru North,Bengaluru Urban,"Sri Sai Krupa Hospital, Bengaluru North, Bengaluru Urban, Karnataka, India",13.029558,77.5594998
277,Kethams Hospital Pvt Ltd,Bengaluru North,Bengaluru Urban,"Kethams Hospital Pvt Ltd, Bengaluru North, Bengaluru Urban, Karnataka, India",13.0686973,77.5583908
278,Prashanth Hospital,Bengaluru North,Bengaluru Urban,"Prashanth Hospital, Bengaluru North, Bengaluru Urban, Karnataka, India",12.9067483,77.6287108
279,Shobha Maternity And Surgical Healthcare Centre,Bengaluru North,Bengaluru Urban,"Shobha Maternity And Surgical Healthcare Centre, Bengaluru North, Bengaluru Urban, Karnataka, India",12.9223326,77.5202203
280,Manjunath Hospital,Bengaluru North,Bengaluru Urban,"Manjunath Hospital, Bengaluru North, Bengaluru Urban, Karnataka, India",12.94844,77.5940792
283,Sri Balaji Hospital,Bengaluru North,Bengaluru Urban,"Sri Balaji Hospital, Bengaluru North, Bengaluru Urban, Karnataka, India",12.9445236,77.5722919
284,Hope Hospital Tulasi Healthcare Services,Bengaluru North,Bengaluru Urban,"Hope Hospital Tulasi Healthcare Services, Bengaluru North, Bengaluru Urban, Karnataka, India",12.958154,77.708578
285,Agadi Hospital And Research Centre,Bengaluru North,Bengaluru Urban,"Agadi Hospital And Research Centre, Bengaluru North, Bengaluru Urban, Karnataka, India",13.005764,77.565576
286,Sujatha Hospital A Unit Of Santosh Hospital,Bengaluru North,Bengaluru Urban,"Sujatha Hospital A Unit Of Santosh Hospital, Bengaluru North, Bengaluru Urban, Karnataka, India",12.995934,77.608232
287,Namratha Nursig And Maternity Home,Bengaluru North,Bengaluru Urban,"Namratha Nursig And Maternity Home, Bengaluru North, Bengaluru Urban, Karnataka, India",12.9497855,77.5271479
288,Sreenagar Hospital,Bengaluru North,Bengaluru Urban,"Sreenagar Hospital, Bengaluru North, Bengaluru Urban, Karnataka, India",12.940874,77.58600699
290,Ssnmc Super Specialty Hospital  A Unit Of Dr. Shettys New Medical Centre Private Limited,Bengaluru North,Bengaluru Urban,"Ssnmc Super Specialty Hospital  A Unit Of Dr. Shettys New Medical Centre Private Limited, Bengaluru North, Bengaluru Urban, Karnataka, India",12.8117615,77.5042934
291,Suguna Hospital,Bengaluru North,Bengaluru Urban,"Suguna Hospital, Bengaluru North, Bengaluru Urban, Karnataka, India",12.9802537,77.5549664
292,Anugraha Vittala Hospital,Bengaluru North,Bengaluru Urban,"Anugraha Vittala Hospital, Bengaluru North, Bengaluru Urban, Karnataka, India",13.01624204,77.65314088
293,Medizone Medical Centre,Bengaluru North,Bengaluru Urban,"Medizone Medical Centre, Bengaluru North, Bengaluru Urban, Karnataka, India",12.968997,77.6826791
294,Gayathri Hospital Pvt Ltd,Bengaluru North,Bengaluru Urban,"Gayathri Hospital Pvt Ltd, Bengaluru North, Bengaluru Urban, Karnataka, India",12.9742632,77.5426818
295,Astra Super Speciality Hospital,Bengaluru North,Bengaluru Urban,"Astra Super Speciality Hospital, Bengaluru North, Bengaluru Urban, Karnataka, India",12.890877,77.563231
296,Sankeerthana Hosptials  Pvt.Ltd.,Bengaluru North,Bengaluru Urban,"Sankeerthana Hosptials  Pvt.Ltd., Bengaluru North, Bengaluru Urban, Karnataka, India",12.8117615,77.5042934
297,Punya Hospitals India Pvt Ltd,Bengaluru North,Bengaluru Urban,"Punya Hospitals India Pvt Ltd, Bengaluru North, Bengaluru Urban, Karnataka, India",12.880792,77.645426
298,Punya Hospitals India Pvt Plt,Bengaluru North,Bengaluru Urban,"Punya Hospitals India Pvt Plt, Bengaluru North, Bengaluru Urban, Karnataka, India",13.0008464,77.5364699
299,Raksha Multispeciality Hospital,Bengaluru North,Bengaluru Urban,"Raksha Multispeciality Hospital, Bengaluru North, Bengaluru Urban, Karnataka, India",13.019597,77.541931
300,Bangalore Prime Hospital,Bengaluru North,Bengaluru Urban,"Bangalore Prime Hospital, Bengaluru North, Bengaluru Urban, Karnataka, India",13.066765,77.6386675
301,Matru Multispeciality Hospital,Bengaluru North,Bengaluru Urban,"Matru Multispeciality Hospital, Bengaluru North, Bengaluru Urban, Karnataka, India",12.9190968,77.6382137
302,Smt Shantha And Sri J A Narayana Rao Foundation For Medical Sciences,Bengaluru North,Bengaluru Urban,"Smt Shantha And Sri J A Narayana Rao Foundation For Medical Sciences, Bengaluru North, Bengaluru Urban, Karnataka, India",12.8117615,77.5042934
303,Aveksha Hospital,Bengaluru North,Bengaluru Urban,"Aveksha Hospital, Bengaluru North, Bengaluru Urban, Karnataka, India",13.0816652,77.5405795
304,Panacea Hospitals Pvt Ltd,Bengaluru North,Bengaluru Urban,"Panacea Hospitals Pvt Ltd, Bengaluru North, Bengaluru Urban, Karnataka, India",12.9931396,77.5388412
305,S K Hospital,Bengaluru North,Bengaluru Urban,"S K Hospital, Bengaluru North, Bengaluru Urban, Karnataka, India",13.0267381,77.6394104
308,Svastha Hospital,Bengaluru North,Bengaluru Urban,"Svastha Hospital, Bengaluru North, Bengaluru Urban, Karnataka, India",12.9659286,77.749305
310,Yashomati Hospitals Pvt. Ltd.,Bengaluru North,Bengaluru Urban,"Yashomati Hospitals Pvt. Ltd., Bengaluru North, Bengaluru Urban, Karnataka, India",12.955722,77.711254
311,Motherhood Hospital Sahakaranagar,Bengaluru North,Bengaluru Urban,"Motherhood Hospital Sahakaranagar, Bengaluru North, Bengaluru Urban, Karnataka, India",13.061631,77.592971
312,Geetha Maternity And Surgical Center,Bengaluru North,Bengaluru Urban,"Geetha Maternity And Surgical Center, Bengaluru North, Bengaluru Urban, Karnataka, India",12.9223326,77.5202203
313,Bms Hospital Trust,Bengaluru North,Bengaluru Urban,"Bms Hospital Trust, Bengaluru North, Bengaluru Urban, Karnataka, India",12.941311,77.567611
314,Green City Hospital,Bengaluru North,Bengaluru Urban,"Green City Hospital, Bengaluru North, Bengaluru Urban, Karnataka, India",12.9055682,77.5852602
316,Bangalore Medical And Surgical Centre,Bengaluru North,Bengaluru Urban,"Bangalore Medical And Surgical Centre, Bengaluru North, Bengaluru Urban, Karnataka, India",13.027105,77.5780371
317,The Oxford Medical College Hospital And Research Centre,Bengaluru North,Bengaluru Urban,"The Oxford Medical College Hospital And Research Centre, Bengaluru North, Bengaluru Urban, Karnataka, India",12.982909,77.536804
319,Ovum Hospitals Unit Of Neonatal Care And Reserch Institute Pvt Ltd,Bengaluru North,Bengaluru Urban,"Ovum Hospitals Unit Of Neonatal Care And Reserch Institute Pvt Ltd, Bengaluru North, Bengaluru Urban, Karnataka, India",12.8117615,77.5042934
320,Aayug Multispecialty Hospital,Bengaluru North,Bengaluru Urban,"Aayug Multispecialty Hospital, Bengaluru North, Bengaluru Urban, Karnataka, India",12.9190968,77.6382137
321,Supra Hospital,Bengaluru North,Bengaluru Urban,"Supra Hospital, Bengaluru North, Bengaluru Urban, Karnataka, India",12.891904,77.5799028
322,Navachethana Hospital,Bengaluru North,Bengaluru Urban,"Navachethana Hospital, Bengaluru North, Bengaluru Urban, Karnataka, India",13.103692,77.583734
323,Sadvin Hospital Pvt Ltd,Bengaluru North,Bengaluru Urban,"Sadvin Hospital Pvt Ltd, Bengaluru North, Bengaluru Urban, Karnataka, India",12.8117615,77.5042934
325,South City Hospital,Bengaluru North,Bengaluru Urban,"South City Hospital, Bengaluru North, Bengaluru Urban, Karnataka, India",12.949803,77.580068
326,Sita Bhateja Speciality Hospital,Bengaluru North,Bengaluru Urban,"Sita Bhateja Speciality Hospital, Bengaluru North, Bengaluru Urban, Karnataka, India",12.9630087,77.5996906
327,Narayana Hrudalaya Pvt Ltd,Bengaluru North,Bengaluru Urban,"Narayana Hrudalaya Pvt Ltd, Bengaluru North, Bengaluru Urban, Karnataka, India",12.8085119,77.6943843
328,Gunasheela Surgical And Maternity Hospital,Bengaluru North,Bengaluru Urban,"Gunasheela Surgical And Maternity Hospital, Bengaluru North, Bengaluru Urban, Karnataka, India",12.8117615,77.5042934
329,Ndr Hospital,Bengaluru North,Bengaluru Urban,"Ndr Hospital, Bengaluru North, Bengaluru Urban, Karnataka, India",13.0267381,77.6394104
330,Sparsh Super Speciality Hospital,Bengaluru North,Bengaluru Urban,"Sparsh Super Speciality Hospital, Bengaluru North, Bengaluru Urban, Karnataka, India",13.027439,77.542911
331,Sharadha Nursing Home,Bengaluru North,Bengaluru Urban,"Sharadha Nursing Home, Bengaluru North, Bengaluru Urban, Karnataka, India",12.9429458,77.6173727
333,Arshitha Health Care Pvt Ltd,Bengaluru North,Bengaluru Urban,"Arshitha Health Care Pvt Ltd, Bengaluru North, Bengaluru Urban, Karnataka, India",12.9226558,77.571882
334,Kids  Clinic India Pvt Ltd Cloudnine Hospital,Bengaluru North,Bengaluru Urban,"Kids  Clinic India Pvt Ltd Cloudnine Hospital, Bengaluru North, Bengaluru Urban, Karnataka, India",12.9879688,77.7319753
335,Meenakshi Hospitals,Bengaluru North,Bengaluru Urban,"Meenakshi Hospitals, Bengaluru North, Bengaluru Urban, Karnataka, India",13.0267381,77.6394104
336,Soukhya Hospital,Bengaluru North,Bengaluru Urban,"Soukhya Hospital, Bengaluru North, Bengaluru Urban, Karnataka, India",13.0774059,77.5586897
337,Vydehi Institution Of Medical Science And Research Centre,Bengaluru North,Bengaluru Urban,"Vydehi Institution Of Medical Science And Research Centre, Bengaluru North, Bengaluru Urban, Karnataka, India",12.976149,77.728768
339,Jayashree Multi Speciality Hospital,Bengaluru North,Bengaluru Urban,"Jayashree Multi Speciality Hospital, Bengaluru North, Bengaluru Urban, Karnataka, India",12.9190968,77.6382137
341,Indira Hospital,Bengaluru North,Bengaluru Urban,"Indira Hospital, Bengaluru North, Bengaluru Urban, Karnataka, India",12.789289,77.627275
343,Dr Levine Memorial Hospital,Bengaluru North,Bengaluru Urban,"Dr Levine Memorial Hospital, Bengaluru North, Bengaluru Urban, Karnataka, India",12.9187804,77.6706259
346,Appolo Koramangala Cradle Ltd,Bengaluru North,Bengaluru Urban,"Appolo Koramangala Cradle Ltd, Bengaluru North, Bengaluru Urban, Karnataka, India",12.9315611,77.6255576
347,Eskay Healthcare,Bengaluru North,Bengaluru Urban,"Eskay Healthcare, Bengaluru North, Bengaluru Urban, Karnataka, India",12.8117615,77.5042934
348,Navachethana Hospital And Research Center,Bengaluru North,Bengaluru Urban,"Navachethana Hospital And Research Center, Bengaluru North, Bengaluru Urban, Karnataka, India",13.005764,77.565576
349,Town Hospital,Bengaluru North,Bengaluru Urban,"Town Hospital, Bengaluru North, Bengaluru Urban, Karnataka, India",12.860607,77.789864
350,Columbia Asia Referral Hospital,Bengaluru North,Bengaluru Urban,"Columbia Asia Referral Hospital, Bengaluru North, Bengaluru Urban, Karnataka, India",13.014218,77.556555
351,People Three Hospitals,Bengaluru North,Bengaluru Urban,"People Three Hospitals, Bengaluru North, Bengaluru Urban, Karnataka, India",12.942023,77.553641
352,Poornima Hospital,Bengaluru North,Bengaluru Urban,"Poornima Hospital, Bengaluru North, Bengaluru Urban, Karnataka, India",13.027773,77.595212
353,Narayana Medical Centre,Bengaluru North,Bengaluru Urban,"Narayana Medical Centre, Bengaluru North, Bengaluru Urban, Karnataka, India",12.956731,77.605643
354,Msr Milann The Fertility Centre,Bengaluru North,Bengaluru Urban,"Msr Milann The Fertility Centre, Bengaluru North, Bengaluru Urban, Karnataka, India",12.9787383,77.6380265
355,P.D.Hinduja Sindhi Hospital,Bengaluru North,Bengaluru Urban,"P.D.Hinduja Sindhi Hospital, Bengaluru North, Bengaluru Urban, Karnataka, India",12.964448,77.592734
356,Rainbow Childrens Medicare Pvt Ltd,Bengaluru North,Bengaluru Urban,"Rainbow Childrens Medicare Pvt Ltd, Bengaluru North, Bengaluru Urban, Karnataka, India",12.8117615,77.5042934
357,Parivar Seva Clinic,Bengaluru North,Bengaluru Urban,"Parivar Seva Clinic, Bengaluru North, Bengaluru Urban, Karnataka, India",12.9605698,77.5941586
358,Si Vega Hospital Pvt Lts,Bengaluru North,Bengaluru Urban,"Si Vega Hospital Pvt Lts, Bengaluru North, Bengaluru Urban, Karnataka, India",12.8117615,77.5042934
359,Ravi Kirloskar Memorial Hospital,Bengaluru North,Bengaluru Urban,"Ravi Kirloskar Memorial Hospital, Bengaluru North, Bengaluru Urban, Karnataka, India",13.0393153,77.5275098
360,Hamilton Bailey Hospital,Bengaluru North,Bengaluru Urban,"Hamilton Bailey Hospital, Bengaluru North, Bengaluru Urban, Karnataka, India",12.900953,77.648688
361,Amruth Hospital Affordable Multi Speciality Hospital,Bengaluru North,Bengaluru Urban,"Amruth Hospital Affordable Multi Speciality Hospital, Bengaluru North, Bengaluru Urban, Karnataka, India",12.9190968,77.6382137
362,Cure N Care Hospital,Bengaluru North,Bengaluru Urban,"Cure N Care Hospital, Bengaluru North, Bengaluru Urban, Karnataka, India",13.0243799,77.6564721
363,Apollo Speciality Hospitals Pvt Ltd,Bengaluru North,Bengaluru Urban,"Apollo Speciality Hospitals Pvt Ltd, Bengaluru North, Bengaluru Urban, Karnataka, India",13.008473,77.568338
364,Chord Road Hospital Pvt Ltd,Bengaluru North,Bengaluru Urban,"Chord Road Hospital Pvt Ltd, Bengaluru North, Bengaluru Urban, Karnataka, India",12.9979089,77.5405456
365,Vijayanagar Global Hospital,Bengaluru North,Bengaluru Urban,"Vijayanagar Global Hospital, Bengaluru North, Bengaluru Urban, Karnataka, India",12.9528719,77.5287177
366,Sri Sai Clinic And Maternity Home,Bengaluru North,Bengaluru Urban,"Sri Sai Clinic And Maternity Home, Bengaluru North, Bengaluru Urban, Karnataka, India",12.988031,77.555671
367,Yogananda Multi Speciality Hospital,Bengaluru North,Bengaluru Urban,"Yogananda Multi Speciality Hospital, Bengaluru North, Bengaluru Urban, Karnataka, India",12.917998,77.559425
368,Sapthagiri Hospital,Bengaluru North,Bengaluru Urban,"Sapthagiri Hospital, Bengaluru North, Bengaluru Urban, Karnataka, India",13.070628,77.502344
369,Manjunatha Maternity Home And Surgical Centre,Bengaluru North,Bengaluru Urban,"Manjunatha Maternity Home And Surgical Centre, Bengaluru North, Bengaluru Urban, Karnataka, India",12.8117615,77.5042934
371,Shivashakti Multispecialty Hospital,Bengaluru North,Bengaluru Urban,"Shivashakti Multispecialty Hospital, Bengaluru North, Bengaluru Urban, Karnataka, India",12.940867,77.493026
372,Apollo Speciyalty Hospitals Pvt Ltd,Bengaluru North,Bengaluru Urban,"Apollo Speciyalty Hospitals Pvt Ltd, Bengaluru North, Bengaluru Urban, Karnataka, India",13.008473,77.568338
373,Dkr Healthcare Pvt Ltd Milanna The Fertility Centreno.,Bengaluru North,Bengaluru Urban,"Dkr Healthcare Pvt Ltd Milanna The Fertility Centreno., Bengaluru North, Bengaluru Urban, Karnataka, India",12.9787383,77.6380265
374,Vasavi Hospital,Bengaluru North,Bengaluru Urban,"Vasavi Hospital, Bengaluru North, Bengaluru Urban, Karnataka, India",12.903161,77.560363
375,Sagar Hospital,Bengaluru North,Bengaluru Urban,"Sagar Hospital, Bengaluru North, Bengaluru Urban, Karnataka, India",12.9081399,77.5649351
376,Fortis Health Management Ltd,Bengaluru North,Bengaluru Urban,"Fortis Health Management Ltd, Bengaluru North, Bengaluru Urban, Karnataka, India",12.976348,77.6151326
378,Omega Multispeciality Hospital A Unit Of Narcc Multispeciality Hospital,Bengaluru North,Bengaluru Urban,"Omega Multispeciality Hospital A Unit Of Narcc Multispeciality Hospital, Bengaluru North, Bengaluru Urban, Karnataka, India",12.8117615,77.5042934
379,Apollp Koramangala Cradle Ltd,Bengaluru North,Bengaluru Urban,"Apollp Koramangala Cradle Ltd, Bengaluru North, Bengaluru Urban, Karnataka, India",12.9315611,77.6255576
380,The Oxford Medecal College Hospital,Bengaluru North,Bengaluru Urban,"The Oxford Medecal College Hospital, Bengaluru North, Bengaluru Urban, Karnataka, India",12.786667,77.757032
381,Brindavvan Areion Hospital,Bengaluru North,Bengaluru Urban,"Brindavvan Areion Hospital, Bengaluru North, Bengaluru Urban, Karnataka, India",12.8117615,77.5042934
384,Rajeshawari Nursing Home,Bengaluru North,Bengaluru Urban,"Rajeshawari Nursing Home, Bengaluru North, Bengaluru Urban, Karnataka, India",12.8117615,77.5042934
386,Ramamani Nursing And Maternity Home Padmini Clinic,Bengaluru North,Bengaluru Urban,"Ramamani Nursing And Maternity Home Padmini Clinic, Bengaluru North, Bengaluru Urban, Karnataka, India",12.9269338,77.603959
387,Sreenivasa Hospital,Bengaluru North,Bengaluru Urban,"Sreenivasa Hospital, Bengaluru North, Bengaluru Urban, Karnataka, India",12.709418,77.698337
388,Kamath Nursing Home,Bengaluru North,Bengaluru Urban,"Kamath Nursing Home, Bengaluru North, Bengaluru Urban, Karnataka, India",13.0030048,77.6355536
389,Narayana Multispeciyalty Hospital,Bengaluru North,Bengaluru Urban,"Narayana Multispeciyalty Hospital, Bengaluru North, Bengaluru Urban, Karnataka, India",12.9081999,77.6435264
390,Jayashree Nursing Home,Bengaluru North,Bengaluru Urban,"Jayashree Nursing Home, Bengaluru North, Bengaluru Urban, Karnataka, India",12.996593,77.572389
391,Vikram Hospital Banglore Pvt Ltd,Bengaluru North,Bengaluru Urban,"Vikram Hospital Banglore Pvt Ltd, Bengaluru North, Bengaluru Urban, Karnataka, India",12.8117615,77.5042934
392,Jejas Nusing Home,Bengaluru North,Bengaluru Urban,"Jejas Nusing Home, Bengaluru North, Bengaluru Urban, Karnataka, India",12.96814,77.5453302
393,Excel Care Hospital,Bengaluru North,Bengaluru Urban,"Excel Care Hospital, Bengaluru North, Bengaluru Urban, Karnataka, India",12.9208822,77.5735734
394,Geetha Hospital,Bengaluru North,Bengaluru Urban,"Geetha Hospital, Bengaluru North, Bengaluru Urban, Karnataka, India",13.035766,77.735262
395,Pooranima Hospital,Bengaluru North,Bengaluru Urban,"Pooranima Hospital, Bengaluru North, Bengaluru Urban, Karnataka, India",13.027773,77.595212
396,M.S.Ramaiah Memorial Hospital,Bengaluru North,Bengaluru Urban,"M.S.Ramaiah Memorial Hospital, Bengaluru North, Bengaluru Urban, Karnataka, India",13.09264,77.5854587
398,Apollo Hospitals Enterprises Ltd,Bengaluru North,Bengaluru Urban,"Apollo Hospitals Enterprises Ltd, Bengaluru North, Bengaluru Urban, Karnataka, India",12.8117615,77.5042934
400,Milann The Fertility Centre A Unit Of Bacc Healthcare Pvt Ltd,Bengaluru North,Bengaluru Urban,"Milann The Fertility Centre A Unit Of Bacc Healthcare Pvt Ltd, Bengaluru North, Bengaluru Urban, Karnataka, India",12.9787383,77.6380265
401,Ashwini Hospital,Bengaluru North,Bengaluru Urban,"Ashwini Hospital, Bengaluru North, Bengaluru Urban, Karnataka, India",13.0118215,77.7644747
402,The Banglore Hospital,Bengaluru North,Bengaluru Urban,"The Banglore Hospital, Bengaluru North, Bengaluru Urban, Karnataka, India",12.937788,77.5799782
403,Ramakrishna Hospital Unit Three,Bengaluru North,Bengaluru Urban,"Ramakrishna Hospital Unit Three, Bengaluru North, Bengaluru Urban, Karnataka, India",12.854602,77.662676
404,Sagar Chandramma Hospital,Bengaluru North,Bengaluru Urban,"Sagar Chandramma Hospital, Bengaluru North, Bengaluru Urban, Karnataka, India",12.9484614,77.574725
406,Shaker Nursing Home,Bengaluru North,Bengaluru Urban,"Shaker Nursing Home, Bengaluru North, Bengaluru Urban, Karnataka, India",13.007539,77.57106
407,N.R.R.Hospital,Bengaluru North,Bengaluru Urban,"N.R.R.Hospital, Bengaluru North, Bengaluru Urban, Karnataka, India",12.88379102,77.5467259
408,Fortis Hospital Ltd,Bengaluru North,Bengaluru Urban,"Fortis Hospital Ltd, Bengaluru North, Bengaluru Urban, Karnataka, India",12.9598,77.511271
409,Smt.Shantha And Sri J.A.Narayanarao Foundation For Medical Sciences,Bengaluru North,Bengaluru Urban,"Smt.Shantha And Sri J.A.Narayanarao Foundation For Medical Sciences, Bengaluru North, Bengaluru Urban, Karnataka, India",12.8117615,77.5042934
410,H.K.Hospital,Bengaluru North,Bengaluru Urban,"H.K.Hospital, Bengaluru North, Bengaluru Urban, Karnataka, India",13.0267381,77.6394104
411,Bangalore Baptist Hospital,Bengaluru North,Bengaluru Urban,"Bangalore Baptist Hospital, Bengaluru North, Bengaluru Urban, Karnataka, India",13.0355313,77.5891529
412,Ramakrishna Hospital Unit Two,Bengaluru North,Bengaluru Urban,"Ramakrishna Hospital Unit Two, Bengaluru North, Bengaluru Urban, Karnataka, India",12.854602,77.662676
413,Mallige Medical Centre,Bengaluru North,Bengaluru Urban,"Mallige Medical Centre, Bengaluru North, Bengaluru Urban, Karnataka, India",12.937851,77.5571697
414,Rangadore Memorial Hospital,Bengaluru North,Bengaluru Urban,"Rangadore Memorial Hospital, Bengaluru North, Bengaluru Urban, Karnataka, India",12.9497028,77.570145
416,East Point Hospital,Bengaluru North,Bengaluru Urban,"East Point Hospital, Bengaluru North, Bengaluru Urban, Karnataka, India",13.054031,77.717791
417,Maruthi Hospital,Bengaluru North,Bengaluru Urban,"Maruthi Hospital, Bengaluru North, Bengaluru Urban, Karnataka, India",12.967765,77.541292
418,Best Hospital,Bengaluru North,Bengaluru Urban,"Best Hospital, Bengaluru North, Bengaluru Urban, Karnataka, India",13.0267381,77.6394104
419,Shshrusha Hospital,Bengaluru North,Bengaluru Urban,"Shshrusha Hospital, Bengaluru North, Bengaluru Urban, Karnataka, India",13.0267381,77.6394104
420,Life Care Hospital,Bengaluru North,Bengaluru Urban,"Life Care Hospital, Bengaluru North, Bengaluru Urban, Karnataka, India",12.919344,77.6128187
421,Horizon Hospital,Bengaluru North,Bengaluru Urban,"Horizon Hospital, Bengaluru North, Bengaluru Urban, Karnataka, India",12.9753909,77.5358238
422,Eliya Prabha Maternity Centre,Bengaluru North,Bengaluru Urban,"Eliya Prabha Maternity Centre, Bengaluru North, Bengaluru Urban, Karnataka, India",13.007786,77.546941
423,Ss Hospital,Bengaluru North,Bengaluru Urban,"Ss Hospital, Bengaluru North, Bengaluru Urban, Karnataka, India",13.0267381,77.6394104
424,Apurva Mother And Child Hospital,Bengaluru North,Bengaluru Urban,"Apurva Mother And Child Hospital, Bengaluru North, Bengaluru Urban, Karnataka, India",13.008002,77.583742
425,Medi Hope Hospital And Research Center Pvt Ltd,Bengaluru North,Bengaluru Urban,"Medi Hope Hospital And Research Center Pvt Ltd, Bengaluru North, Bengaluru Urban, Karnataka, India",12.9704689,77.5561925
426,Sakra World Hospital A Unit Of Tashasila Hospitals Operating Pvt Ltd,Bengaluru North,Bengaluru Urban,"Sakra World Hospital A Unit Of Tashasila Hospitals Operating Pvt Ltd, Bengaluru North, Bengaluru Urban, Karnataka, India",12.8117615,77.5042934
427,Fortis Hospital,Bengaluru North,Bengaluru Urban,"Fortis Hospital, Bengaluru North, Bengaluru Urban, Karnataka, India",12.9882802,77.59433734
428,Bgs Gims Hospital,Bengaluru North,Bengaluru Urban,"Bgs Gims Hospital, Bengaluru North, Bengaluru Urban, Karnataka, India",13.0267381,77.6394104
429,Mother Hood Hospital,Bengaluru North,Bengaluru Urban,"Mother Hood Hospital, Bengaluru North, Bengaluru Urban, Karnataka, India",12.860475,77.780236
430,Arunodaya Hospital,Bengaluru North,Bengaluru Urban,"Arunodaya Hospital, Bengaluru North, Bengaluru Urban, Karnataka, India",13.0570019,77.5084612
431,Altius Hospital Pvt Ltd (Unit Of Ramesh Hospital),Bengaluru North,Bengaluru Urban,"Altius Hospital Pvt Ltd (Unit Of Ramesh Hospital), Bengaluru North, Bengaluru Urban, Karnataka, India",12.98483,77.5569
432,Rajarajeshwari Medical College And Hospital,Bengaluru North,Bengaluru Urban,"Rajarajeshwari Medical College And Hospital, Bengaluru North, Bengaluru Urban, Karnataka, India",12.844572,77.489674
433,K C Raju Multispecility Hospital,Bengaluru North,Bengaluru Urban,"K C Raju Multispecility Hospital, Bengaluru North, Bengaluru Urban, Karnataka, India",12.9190968,77.6382137
434,Bore Gowda Lingamma Hospital,Bengaluru North,Bengaluru Urban,"Bore Gowda Lingamma Hospital, Bengaluru North, Bengaluru Urban, Karnataka, India",13.0168728,77.5394557
435,Comfort Diaganostic,Bengaluru North,Bengaluru Urban,"Comfort Diaganostic, Bengaluru North, Bengaluru Urban, Karnataka, India",12.8117615,77.5042934
436,Samastha Hospital Pvt Ltd,Bengaluru North,Bengaluru Urban,"Samastha Hospital Pvt Ltd, Bengaluru North, Bengaluru Urban, Karnataka, India",12.8970015,77.5473403
437,Santosh Hospital,Bengaluru North,Bengaluru Urban,"Santosh Hospital, Bengaluru North, Bengaluru Urban, Karnataka, India",12.995934,77.608232
439,Sri Sai Health Care,Bengaluru North,Bengaluru Urban,"Sri Sai Health Care, Bengaluru North, Bengaluru Urban, Karnataka, India",12.9059037,77.6840694
441,R R Hospital And Trama Center,Bengaluru North,Bengaluru Urban,"R R Hospital And Trama Center, Bengaluru North, Bengaluru Urban, Karnataka, India",12.9073421,77.5714729
442,Agadi Hospital,Bengaluru North,Bengaluru Urban,"Agadi Hospital, Bengaluru North, Bengaluru Urban, Karnataka, India",12.9492056,77.5976753
443,Telerad Rx Dx Health Care Pvt Ltd,Bengaluru North,Bengaluru Urban,"Telerad Rx Dx Health Care Pvt Ltd, Bengaluru North, Bengaluru Urban, Karnataka, India",12.9226558,77.571882
444,Gayathri Diagnostics And Health Services,Bengaluru North,Bengaluru Urban,"Gayathri Diagnostics And Health Services, Bengaluru North, Bengaluru Urban, Karnataka, India",12.8117615,77.5042934
445,Gurushree Hi Teah Multi Speciality Hospital,Bengaluru North,Bengaluru Urban,"Gurushree Hi Teah Multi Speciality Hospital, Bengaluru North, Bengaluru Urban, Karnataka, India",12.959311,77.526506
446,Brindhavvan Areion Hospital,Bengaluru North,Bengaluru Urban,"Brindhavvan Areion Hospital, Bengaluru North, Bengaluru Urban, Karnataka, India",12.8117615,77.5042934
447,Bgs Global Hospital,Bengaluru North,Bengaluru Urban,"Bgs Global Hospital, Bengaluru North, Bengaluru Urban, Karnataka, India",12.902313,77.497746
448,Brinda Hospital,Bengaluru North,Bengaluru Urban,"Brinda Hospital, Bengaluru North, Bengaluru Urban, Karnataka, India",12.9779862,77.511521
449,Unity Lifeline Hospital India Pvt Ltd,Bengaluru North,Bengaluru Urban,"Unity Lifeline Hospital India Pvt Ltd, Bengaluru North, Bengaluru Urban, Karnataka, India",12.9819154,77.5109019
451,Kusuma,Bengaluru North,Bengaluru Urban,"Kusuma, Bengaluru North, Bengaluru Urban, Karnataka, India",12.93024801,77.56004949
452,Aaple Hospital,Bengaluru North,Bengaluru Urban,"Aaple Hospital, Bengaluru North, Bengaluru Urban, Karnataka, India",13.103959,77.583761
454,Veena Medical Centre,Bengaluru North,Bengaluru Urban,"Veena Medical Centre, Bengaluru North, Bengaluru Urban, Karnataka, India",12.9988284,77.5551882
455,Sri Sri College Of Ayurvedic And Research Hospital,Bengaluru North,Bengaluru Urban,"Sri Sri College Of Ayurvedic And Research Hospital, Bengaluru North, Bengaluru Urban, Karnataka, India",12.822284,77.521075
456,Panacea Hospital,Bengaluru North,Bengaluru Urban,"Panacea Hospital, Bengaluru North, Bengaluru Urban, Karnataka, India",12.9931396,77.5388412
457,Millann The Fertility Centre,Bengaluru North,Bengaluru Urban,"Millann The Fertility Centre, Bengaluru North, Bengaluru Urban, Karnataka, India",12.9787383,77.6380265
458,Motherhood Hospital,Bengaluru North,Bengaluru Urban,"Motherhood Hospital, Bengaluru North, Bengaluru Urban, Karnataka, India",13.061631,77.592971
459,Family Hospital,Bengaluru North,Bengaluru Urban,"Family Hospital, Bengaluru North, Bengaluru Urban, Karnataka, India",13.0267381,77.6394104
461,Gynecare,Bengaluru North,Bengaluru Urban,"Gynecare, Bengaluru North, Bengaluru Urban, Karnataka, India",12.8117615,77.5042934
462,Mirror Health,Bengaluru North,Bengaluru Urban,"Mirror Health, Bengaluru North, Bengaluru Urban, Karnataka, India",12.8117615,77.5042934
463,Narayana Super Speciality Ltd,Bengaluru North,Bengaluru Urban,"Narayana Super Speciality Ltd, Bengaluru North, Bengaluru Urban, Karnataka, India",13.008544,77.568473
465,Bharathy Hospital,Bengaluru North,Bengaluru Urban,"Bharathy Hospital, Bengaluru North, Bengaluru Urban, Karnataka, India",13.0267381,77.6394104
467,Gby Maternity And Multispeciality Hospital,Bengaluru North,Bengaluru Urban,"Gby Maternity And Multispeciality Hospital, Bengaluru North, Bengaluru Urban, Karnataka, India",12.9190968,77.6382137
468,Balaji Infertility And Gynaecology Center,Bengaluru North,Bengaluru Urban,"Balaji Infertility And Gynaecology Center, Bengaluru North, Bengaluru Urban, Karnataka, India",12.8117615,77.5042934
470,Ankur Health Care Vpvt Ltd,Bengaluru North,Bengaluru Urban,"Ankur Health Care Vpvt Ltd, Bengaluru North, Bengaluru Urban, Karnataka, India",12.8117615,77.5042934
471,Punya Hospitalas India Pvt Ltd,Bengaluru North,Bengaluru Urban,"Punya Hospitalas India Pvt Ltd, Bengaluru North, Bengaluru Urban, Karnataka, India",12.880792,77.645426
472,Sannati Speciality Hospital,Bengaluru North,Bengaluru Urban,"Sannati Speciality Hospital, Bengaluru North, Bengaluru Urban, Karnataka, India",12.9555455,77.6417322
474,Banglore Medical And Surgical Center,Bengaluru North,Bengaluru Urban,"Banglore Medical And Surgical Center, Bengaluru North, Bengaluru Urban, Karnataka, India",13.027105,77.5780371
475,Ovum Hospital,Bengaluru North,Bengaluru Urban,"Ovum Hospital, Bengaluru North, Bengaluru Urban, Karnataka, India",13.0267381,77.6394104
476,Nandana Health Care,Bengaluru North,Bengaluru Urban,"Nandana Health Care, Bengaluru North, Bengaluru Urban, Karnataka, India",12.9963264,77.5463857
477,Jayanagara General Hospital,Bengaluru North,Bengaluru Urban,"Jayanagara General Hospital, Bengaluru North, Bengaluru Urban, Karnataka, India",12.9256776,77.593386
478,Eshwar Clinic,Bengaluru North,Bengaluru Urban,"Eshwar Clinic, Bengaluru North, Bengaluru Urban, Karnataka, India",12.9209992,77.6116093
479,Lalitha Healthcare Pvt Ltd A Fortis Network Hospital,Bengaluru North,Bengaluru Urban,"Lalitha Healthcare Pvt Ltd A Fortis Network Hospital, Bengaluru North, Bengaluru Urban, Karnataka, India",12.8117615,77.5042934
480,Fortis La Famme Centre For Women,Bengaluru North,Bengaluru Urban,"Fortis La Famme Centre For Women, Bengaluru North, Bengaluru Urban, Karnataka, India",12.8117615,77.5042934
481,Ganga Speciality Hospital Anekal Pvt Ltd,Bengaluru North,Bengaluru Urban,"Ganga Speciality Hospital Anekal Pvt Ltd, Bengaluru North, Bengaluru Urban, Karnataka, India",12.709624,77.701376
482,Deepashri Hospital,Bengaluru North,Bengaluru Urban,"Deepashri Hospital, Bengaluru North, Bengaluru Urban, Karnataka, India",12.93252181,77.55026638
483,Specialist Hospital A Unit Of Specialist Health Systems Pvt Ltd,Bengaluru North,Bengaluru Urban,"Specialist Hospital A Unit Of Specialist Health Systems Pvt Ltd, Bengaluru North, Bengaluru Urban, Karnataka, India",12.8117615,77.5042934
484,Sagar Hospitals Dsi,Bengaluru North,Bengaluru Urban,"Sagar Hospitals Dsi, Bengaluru North, Bengaluru Urban, Karnataka, India",12.9081399,77.5649351
485,People Tree Hospital,Bengaluru North,Bengaluru Urban,"People Tree Hospital, Bengaluru North, Bengaluru Urban, Karnataka, India",13.098989,77.586104
486,Popular Hospital,Bengaluru North,Bengaluru Urban,"Popular Hospital, Bengaluru North, Bengaluru Urban, Karnataka, India",12.9519416,77.5703396
487,Fortis Health Management,Bengaluru North,Bengaluru Urban,"Fortis Health Management, Bengaluru North, Bengaluru Urban, Karnataka, India",12.8117615,77.5042934
488,Aayug Multi Speciality Hospital,Bengaluru North,Bengaluru Urban,"Aayug Multi Speciality Hospital, Bengaluru North, Bengaluru Urban, Karnataka, India",12.9190968,77.6382137
489,Chinmaya Mission Hospital,Bengaluru North,Bengaluru Urban,"Chinmaya Mission Hospital, Bengaluru North, Bengaluru Urban, Karnataka, India",12.97843747,77.64170708
490,Shushrutha Nursing Home,Bengaluru North,Bengaluru Urban,"Shushrutha Nursing Home, Bengaluru North, Bengaluru Urban, Karnataka, India",13.0996961,77.598089
491,Aster Cmi Hospital,Bengaluru North,Bengaluru Urban,"Aster Cmi Hospital, Bengaluru North, Bengaluru Urban, Karnataka, India",13.0546,77.5918877
493,Manipal Hospital,Bengaluru North,Bengaluru Urban,"Manipal Hospital, Bengaluru North, Bengaluru Urban, Karnataka, India",12.9596847,77.649213
494,Promed Hospital,Bengaluru North,Bengaluru Urban,"Promed Hospital, Bengaluru North, Bengaluru Urban, Karnataka, India",13.0267381,77.6394104
495,Neighbourhood Hospital Pvt Ltd,Bengaluru North,Bengaluru Urban,"Neighbourhood Hospital Pvt Ltd, Bengaluru North, Bengaluru Urban, Karnataka, India",12.8894234,77.5820785
499,Kamadenu Hospitals India Pvt Ltd,Bengaluru North,Bengaluru Urban,"Kamadenu Hospitals India Pvt Ltd, Bengaluru North, Bengaluru Urban, Karnataka, India",12.880792,77.645426
500,Raksh Multispecialty Hospital,Bengaluru North,Bengaluru Urban,"Raksh Multispecialty Hospital, Bengaluru North, Bengaluru Urban, Karnataka, India",13.019597,77.541931
501,Shraddha Healthcare And Nursing Home,Bengaluru North,Bengaluru Urban,"Shraddha Healthcare And Nursing Home, Bengaluru North, Bengaluru Urban, Karnataka, India",13.0207926,77.6191294
502,Mallya Hospital,Bengaluru North,Bengaluru Urban,"Mallya Hospital, Bengaluru North, Bengaluru Urban, Karnataka, India",12.9680932,77.5948996
503,Chaithanya Integrateed,Bengaluru North,Bengaluru Urban,"Chaithanya Integrateed, Bengaluru North, Bengaluru Urban, Karnataka, India",12.8117615,77.5042934
504,International Hospital Limited,Bengaluru North,Bengaluru Urban,"International Hospital Limited, Bengaluru North, Bengaluru Urban, Karnataka, India",13.005768,77.571295
505,Chiranjeevi Specialityst S Center,Bengaluru North,Bengaluru Urban,"Chiranjeevi Specialityst S Center, Bengaluru North, Bengaluru Urban, Karnataka, India",12.9176188,77.5970435
506,Gosha Hospital,Bengaluru North,Bengaluru Urban,"Gosha Hospital, Bengaluru North, Bengaluru Urban, Karnataka, India",13.0267381,77.6394104
507,Dr Ramesh Hospital,Bengaluru North,Bengaluru Urban,"Dr Ramesh Hospital, Bengaluru North, Bengaluru Urban, Karnataka, India",12.9067767,77.5634331
509,Ankur Hospital,Bengaluru North,Bengaluru Urban,"Ankur Hospital, Bengaluru North, Bengaluru Urban, Karnataka, India",13.0267381,77.6394104
510,Anugrahaa Hospital,Bengaluru North,Bengaluru Urban,"Anugrahaa Hospital, Bengaluru North, Bengaluru Urban, Karnataka, India",12.976755,77.5455834
511,Millann A Unit Of Bacc Healthcare Pvt Ltd,Bengaluru North,Bengaluru Urban,"Millann A Unit Of Bacc Healthcare Pvt Ltd, Bengaluru North, Bengaluru Urban, Karnataka, India",12.9162654,77.5846782
512,Ssnmc Super Speciality Hospital,Bengaluru North,Bengaluru Urban,"Ssnmc Super Speciality Hospital, Bengaluru North, Bengaluru Urban, Karnataka, India",12.9263227,77.5209657
514,Pan Nagarabhavi Hospital Pvt Ltd,Bengaluru North,Bengaluru Urban,"Pan Nagarabhavi Hospital Pvt Ltd, Bengaluru North, Bengaluru Urban, Karnataka, India",12.9731811,77.5113754
516,S.K.Hospital,Bengaluru North,Bengaluru Urban,"S.K.Hospital, Bengaluru North, Bengaluru Urban, Karnataka, India",13.0267381,77.6394104
517,Aaxis  Super Speciality Hospital,Bengaluru North,Bengaluru Urban,"Aaxis  Super Speciality Hospital, Bengaluru North, Bengaluru Urban, Karnataka, India",13.070628,77.502344
518,Motherhood Hospital A Unit Of Rhea Healthcare Private Limited,Bengaluru North,Bengaluru Urban,"Motherhood Hospital A Unit Of Rhea Healthcare Private Limited, Bengaluru North, Bengaluru Urban, Karnataka, India",12.8117615,77.5042934
519,Divakars Speciality Hospitals,Bengaluru North,Bengaluru Urban,"Divakars Speciality Hospitals, Bengaluru North, Bengaluru Urban, Karnataka, India",12.9564531,77.5829154
520,Sakhii Hospital,Bengaluru North,Bengaluru Urban,"Sakhii Hospital, Bengaluru North, Bengaluru Urban, Karnataka, India",12.90539818,77.603295
525,Kids Clinic India Pvt Ltd Jayanagar,Bengaluru North,Bengaluru Urban,"Kids Clinic India Pvt Ltd Jayanagar, Bengaluru North, Bengaluru Urban, Karnataka, India",12.924623,77.585391
526,Blossom Fertility Centre And Hospital,Bengaluru North,Bengaluru Urban,"Blossom Fertility Centre And Hospital, Bengaluru North, Bengaluru Urban, Karnataka, India",12.8117615,77.5042934
528,Sevakshetra Hospital,Bengaluru North,Bengaluru Urban,"Sevakshetra Hospital, Bengaluru North, Bengaluru Urban, Karnataka, India",12.9214581,77.5721711
529,Govt General Hospital,Bengaluru North,Bengaluru Urban,"Govt General Hospital, Bengaluru North, Bengaluru Urban, Karnataka, India",12.8117615,77.5042934
530,Nova Medical Centers Pvt Ltd,Bengaluru North,Bengaluru Urban,"Nova Medical Centers Pvt Ltd, Bengaluru North, Bengaluru Urban, Karnataka, India",13.006887,77.583778
532,Kamadhenu Hospital India Pvt Ltd,Bengaluru North,Bengaluru Urban,"Kamadhenu Hospital India Pvt Ltd, Bengaluru North, Bengaluru Urban, Karnataka, India",12.880792,77.645426
537,Roshni Nursing Home,Bengaluru North,Bengaluru Urban,"Roshni Nursing Home, Bengaluru North, Bengaluru Urban, Karnataka, India",12.9452129,77.5998381
538,Vydehi Institute Of Medical Science And Research Center,Bengaluru North,Bengaluru Urban,"Vydehi Institute Of Medical Science And Research Center, Bengaluru North, Bengaluru Urban, Karnataka, India",12.976149,77.728768
540,A V Multispeciality Hospital,Bengaluru North,Bengaluru Urban,"A V Multispeciality Hospital, Bengaluru North, Bengaluru Urban, Karnataka, India",12.9190968,77.6382137
541,K C Raju Multi Speciality Hospital,Bengaluru North,Bengaluru Urban,"K C Raju Multi Speciality Hospital, Bengaluru North, Bengaluru Urban, Karnataka, India",13.0093237,77.623708
542,Nu Hospitals Private Limited West,Bengaluru North,Bengaluru Urban,"Nu Hospitals Private Limited West, Bengaluru North, Bengaluru Urban, Karnataka, India",12.990269,77.573099
548,Kusuma Hospital,Bengaluru North,Bengaluru Urban,"Kusuma Hospital, Bengaluru North, Bengaluru Urban, Karnataka, India",12.941988,77.5511585
549,Milann A Unit Of Bacc Healthcare Pvt Ltd,Bengaluru North,Bengaluru Urban,"Milann A Unit Of Bacc Healthcare Pvt Ltd, Bengaluru North, Bengaluru Urban, Karnataka, India",12.9162654,77.5846782
550,Raj Mahal Vilas Hospital,Bengaluru North,Bengaluru Urban,"Raj Mahal Vilas Hospital, Bengaluru North, Bengaluru Urban, Karnataka, India",13.0323637,77.5771296
551,Narayana Super Speciality Hospital,Bengaluru North,Bengaluru Urban,"Narayana Super Speciality Hospital, Bengaluru North, Bengaluru Urban, Karnataka, India",13.008544,77.568473
552,Vydehi Hospital,Bengaluru North,Bengaluru Urban,"Vydehi Hospital, Bengaluru North, Bengaluru Urban, Karnataka, India",13.0267381,77.6394104
553,Genesis Hospital - Unit Of American Hospital,Bengaluru North,Bengaluru Urban,"Genesis Hospital - Unit Of American Hospital, Bengaluru North, Bengaluru Urban, Karnataka, India",12.986711,77.597991
554,Prakriya Hospitals A Unit Of C Square Healthcare Pvt Ltd,Bengaluru North,Bengaluru Urban,"Prakriya Hospitals A Unit Of C Square Healthcare Pvt Ltd, Bengaluru North, Bengaluru Urban, Karnataka, India",12.8117615,77.5042934
556,Zion Hospital And Research Centre Pvt Ltd,Bengaluru North,Bengaluru Urban,"Zion Hospital And Research Centre Pvt Ltd, Bengaluru North, Bengaluru Urban, Karnataka, India",12.9704689,77.5561925
557,Southcityhospital,Bengaluru North,Bengaluru Urban,"Southcityhospital, Bengaluru North, Bengaluru Urban, Karnataka, India",12.949803,77.580068
558,Bgs Global Institute Of Medical Sciences And Hospital,Bengaluru North,Bengaluru Urban,"Bgs Global Institute Of Medical Sciences And Hospital, Bengaluru North, Bengaluru Urban, Karnataka, India",12.900087,77.497159
559,Rajiv Gandhi Medical Hospital,Bengaluru North,Bengaluru Urban,"Rajiv Gandhi Medical Hospital, Bengaluru North, Bengaluru Urban, Karnataka, India",13.034355,77.598189
562,Medstar Speciality Hospital,Bengaluru North,Bengaluru Urban,"Medstar Speciality Hospital, Bengaluru North, Bengaluru Urban, Karnataka, India",13.058101,77.585905
563,Sevakshetra Hospital Unit Of Canara Bank Relief And Welfare Society,Bengaluru North,Bengaluru Urban,"Sevakshetra Hospital Unit Of Canara Bank Relief And Welfare Society, Bengaluru North, Bengaluru Urban, Karnataka, India",12.8117615,77.5042934
564,Sharavathi Hospitals Pvt Ltd,Bengaluru North,Bengaluru Urban,"Sharavathi Hospitals Pvt Ltd, Bengaluru North, Bengaluru Urban, Karnataka, India",12.9624603,77.5343687
565,Sakra World Hospital,Bengaluru North,Bengaluru Urban,"Sakra World Hospital, Bengaluru North, Bengaluru Urban, Karnataka, India",12.932276,77.685293
566,Soukya Hospital,Bengaluru North,Bengaluru Urban,"Soukya Hospital, Bengaluru North, Bengaluru Urban, Karnataka, India",13.0774059,77.5586897
570,Ovum Hospital Unit Of Neonatal Care And Research Institute Pvt Ltd,Bengaluru North,Bengaluru Urban,"Ovum Hospital Unit Of Neonatal Care And Research Institute Pvt Ltd, Bengaluru North, Bengaluru Urban, Karnataka, India",12.8117615,77.5042934
574,Columbia Asia Referral Hospitals,Bengaluru North,Bengaluru Urban,"Columbia Asia Referral Hospitals, Bengaluru North, Bengaluru Urban, Karnataka, India",13.014218,77.556555
577,Narayana Hrudayalaya Pvt.Ltd Multispeciality And Oncology Unit,Bengaluru North,Bengaluru Urban,"Narayana Hrudayalaya Pvt.Ltd Multispeciality And Oncology Unit, Bengaluru North, Bengaluru Urban, Karnataka, India",12.8117615,77.5042934
578,Neha Prakash Hospital,Bengaluru North,Bengaluru Urban,"Neha Prakash Hospital, Bengaluru North, Bengaluru Urban, Karnataka, India",13.107833,77.571688
579,Sagar Hospitals Unit Of Healthcare And Diagnostic Services Pvt Ltd.,Bengaluru North,Bengaluru Urban,"Sagar Hospitals Unit Of Healthcare And Diagnostic Services Pvt Ltd., Bengaluru North, Bengaluru Urban, Karnataka, India",12.8117615,77.5042934
580,Sri Ram Hospital,Bengaluru North,Bengaluru Urban,"Sri Ram Hospital, Bengaluru North, Bengaluru Urban, Karnataka, India",12.961396,77.614665
581,Msr Milann A Unit Of Bacc Healthcare Private Limited,Bengaluru North,Bengaluru Urban,"Msr Milann A Unit Of Bacc Healthcare Private Limited, Bengaluru North, Bengaluru Urban, Karnataka, India",12.9162654,77.5846782
583,Gurushree Hitec H Multispeciality Hoapital,Bengaluru North,Bengaluru Urban,"Gurushree Hitec H Multispeciality Hoapital, Bengaluru North, Bengaluru Urban, Karnataka, India",12.959311,77.526506
584,V Care Hospital,Bengaluru North,Bengaluru Urban,"V Care Hospital, Bengaluru North, Bengaluru Urban, Karnataka, India",13.016177,77.5975429
585,Pushpa Nursing Home,Bengaluru North,Bengaluru Urban,"Pushpa Nursing Home, Bengaluru North, Bengaluru Urban, Karnataka, India",12.9688583,77.7496733
586,Kalahospital 1105 5Th Cross K N Extension Yeshwanthpur Bangalore,Bengaluru North,Bengaluru Urban,"Kalahospital 1105 5Th Cross K N Extension Yeshwanthpur Bangalore, Bengaluru North, Bengaluru Urban, Karnataka, India",12.8117615,77.5042934
591,Gurushree Hi Tech Multi Speciality Hospital,Bengaluru North,Bengaluru Urban,"Gurushree Hi Tech Multi Speciality Hospital, Bengaluru North, Bengaluru Urban, Karnataka, India",12.959311,77.526506
592,New Varalakshmi Hospital,Bengaluru North,Bengaluru Urban,"New Varalakshmi Hospital, Bengaluru North, Bengaluru Urban, Karnataka, India",12.9988025,77.5550592
593,Mathrushree Diagnostics And Fertility Center,Bengaluru North,Bengaluru Urban,"Mathrushree Diagnostics And Fertility Center, Bengaluru North, Bengaluru Urban, Karnataka, India",12.8117615,77.5042934
594,Apollo Bangalore Cradle Limited,Bengaluru North,Bengaluru Urban,"Apollo Bangalore Cradle Limited, Bengaluru North, Bengaluru Urban, Karnataka, India",12.8117615,77.5042934
595,Fostr Health Care,Bengaluru North,Bengaluru Urban,"Fostr Health Care, Bengaluru North, Bengaluru Urban, Karnataka, India",12.8117615,77.5042934
596,Lotus Multispeciality Center,Bengaluru North,Bengaluru Urban,"Lotus Multispeciality Center, Bengaluru North, Bengaluru Urban, Karnataka, India",12.9568607,77.7402493
597,Kempegowda Institute Of Medical Sciences And Research Centre,Bengaluru North,Bengaluru Urban,"Kempegowda Institute Of Medical Sciences And Research Centre, Bengaluru North, Bengaluru Urban, Karnataka, India",12.976149,77.728768
598,Sr Sai Hospitals,Bengaluru North,Bengaluru Urban,"Sr Sai Hospitals, Bengaluru North, Bengaluru Urban, Karnataka, India",13.0267381,77.6394104
599,Sushruta Medical Aid And  Research Hospital Limited  The Bangalore Hospital,Bengaluru North,Bengaluru Urban,"Sushruta Medical Aid And  Research Hospital Limited  The Bangalore Hospital, Bengaluru North, Bengaluru Urban, Karnataka, India",12.8117615,77.5042934
602,M S Ramaiah Memorial Hospital,Bengaluru North,Bengaluru Urban,"M S Ramaiah Memorial Hospital, Bengaluru North, Bengaluru Urban, Karnataka, India",13.09264,77.5854587
603,Jayashree Multispeciality Hospital,Bengaluru North,Bengaluru Urban,"Jayashree Multispeciality Hospital, Bengaluru North, Bengaluru Urban, Karnataka, India",12.9190968,77.6382137
605,Ms Ramaiah Memorial Hospital,Bengaluru North,Bengaluru Urban,"Ms Ramaiah Memorial Hospital, Bengaluru North, Bengaluru Urban, Karnataka, India",13.09264,77.5854587
606,Shirdi Sai Hospital Pvt Ltd,Bengaluru North,Bengaluru Urban,"Shirdi Sai Hospital Pvt Ltd, Bengaluru North, Bengaluru Urban, Karnataka, India",13.0377237,77.5651845
608,Ananya Hospital Private Limited,Bengaluru North,Bengaluru Urban,"Ananya Hospital Private Limited, Bengaluru North, Bengaluru Urban, Karnataka, India",12.990269,77.573099
609,P D Hinduja Sindhi Hospital,Bengaluru North,Bengaluru Urban,"P D Hinduja Sindhi Hospital, Bengaluru North, Bengaluru Urban, Karnataka, India",12.964448,77.592734
610,Columbia Asia Hospital - Whitefield (A Unit Of Columbia Asia Hospitals Pvt. Ltd),Bengaluru North,Bengaluru Urban,"Columbia Asia Hospital - Whitefield (A Unit Of Columbia Asia Hospitals Pvt. Ltd), Bengaluru North, Bengaluru Urban, Karnataka, India",13.0509741,77.5933952
611,Aditi Maternity And General Nursing Home,Bengaluru North,Bengaluru Urban,"Aditi Maternity And General Nursing Home, Bengaluru North, Bengaluru Urban, Karnataka, India",12.8117615,77.5042934
612,Manipal Northside Hospital,Bengaluru North,Bengaluru Urban,"Manipal Northside Hospital, Bengaluru North, Bengaluru Urban, Karnataka, India",12.8117615,77.5042934
613,Amruth Hospital Affordable Multispecilaity Hospital,Bengaluru North,Bengaluru Urban,"Amruth Hospital Affordable Multispecilaity Hospital, Bengaluru North, Bengaluru Urban, Karnataka, India",12.9190968,77.6382137
616,Manipal Hospital Bangalore,Bengaluru North,Bengaluru Urban,"Manipal Hospital Bangalore, Bengaluru North, Bengaluru Urban, Karnataka, India",12.9596847,77.649213
617,Swastik Hospital,Bengaluru North,Bengaluru Urban,"Swastik Hospital, Bengaluru North, Bengaluru Urban, Karnataka, India",12.884491,77.749444
618,Phoenix Hospital,Bengaluru North,Bengaluru Urban,"Phoenix Hospital, Bengaluru North, Bengaluru Urban, Karnataka, India",12.9165582,77.6449154
619,Maa Fertility Centre,Bengaluru North,Bengaluru Urban,"Maa Fertility Centre, Bengaluru North, Bengaluru Urban, Karnataka, India",12.8117615,77.5042934
621,Kids Clinic India Pvt Ltd Cloudnine Fertility,Bengaluru North,Bengaluru Urban,"Kids Clinic India Pvt Ltd Cloudnine Fertility, Bengaluru North, Bengaluru Urban, Karnataka, India",12.8117615,77.5042934
622,Dr.Malathi Manipal Hospital,Bengaluru North,Bengaluru Urban,"Dr.Malathi Manipal Hospital, Bengaluru North, Bengaluru Urban, Karnataka, India",12.9596847,77.649213
624,Vikram Hospital Bengaluru Pvt Ltd,Bengaluru North,Bengaluru Urban,"Vikram Hospital Bengaluru Pvt Ltd, Bengaluru North, Bengaluru Urban, Karnataka, India",12.8117615,77.5042934
626,Devagiri Hospital,Bengaluru North,Bengaluru Urban,"Devagiri Hospital, Bengaluru North, Bengaluru Urban, Karnataka, India",12.924136,77.565757
627,Dr.B.R.Ambedkar Medical College Hospital,Bengaluru North,Bengaluru Urban,"Dr.B.R.Ambedkar Medical College Hospital, Bengaluru North, Bengaluru Urban, Karnataka, India",13.0234059,77.6126545
630,Radhakrishna Multispeciality Hospital And Ivf Centre,Bengaluru North,Bengaluru Urban,"Radhakrishna Multispeciality Hospital And Ivf Centre, Bengaluru North, Bengaluru Urban, Karnataka, India",12.8117615,77.5042934
631,Greenview Medical Center,Bengaluru North,Bengaluru Urban,"Greenview Medical Center, Bengaluru North, Bengaluru Urban, Karnataka, India",12.919106,77.638182
632,Valens Hospitals,Bengaluru North,Bengaluru Urban,"Valens Hospitals, Bengaluru North, Bengaluru Urban, Karnataka, India",13.0267381,77.6394104
633,Khb Colony,Bengaluru North,Bengaluru Urban,"Khb Colony, Bengaluru North, Bengaluru Urban, Karnataka, India",12.9942465,77.6363877
635,Motherhood Hospital A Unit Of Rhea Healthcare Pvt Ltd,Bengaluru North,Bengaluru Urban,"Motherhood Hospital A Unit Of Rhea Healthcare Pvt Ltd, Bengaluru North, Bengaluru Urban, Karnataka, India",12.860475,77.780236
637,Ganga Speciality Hosptial Pvt Ltd,Bengaluru North,Bengaluru Urban,"Ganga Speciality Hosptial Pvt Ltd, Bengaluru North, Bengaluru Urban, Karnataka, India",12.709624,77.701376
638,Chaithanya Integrated Healthcare India Pvt Ltd,Bengaluru North,Bengaluru Urban,"Chaithanya Integrated Healthcare India Pvt Ltd, Bengaluru North, Bengaluru Urban, Karnataka, India",12.8117615,77.5042934
640,London Care Hospital,Bengaluru North,Bengaluru Urban,"London Care Hospital, Bengaluru North, Bengaluru Urban, Karnataka, India",12.901047,77.559839
642,Milann The Fertility Center A Unit Of Bacc Healthcare Pvt Ltd,Bengaluru North,Bengaluru Urban,"Milann The Fertility Center A Unit Of Bacc Healthcare Pvt Ltd, Bengaluru North, Bengaluru Urban, Karnataka, India",12.9787383,77.6380265
643,Saralaya Hospital Pvt Ltd,Bengaluru North,Bengaluru Urban,"Saralaya Hospital Pvt Ltd, Bengaluru North, Bengaluru Urban, Karnataka, India",13.1219874,77.629567
644,S.J.Hospital,Bengaluru North,Bengaluru Urban,"S.J.Hospital, Bengaluru North, Bengaluru Urban, Karnataka, India",13.0267381,77.6394104
645,Aster Rv Hospital A Unit Of Aster Dm Healthcare,Bengaluru North,Bengaluru Urban,"Aster Rv Hospital A Unit Of Aster Dm Healthcare, Bengaluru North, Bengaluru Urban, Karnataka, India",12.8117615,77.5042934
648,Nrr Hospital,Bengaluru North,Bengaluru Urban,"Nrr Hospital, Bengaluru North, Bengaluru Urban, Karnataka, India",13.0267381,77.6394104
651,H K Hospital,Bengaluru North,Bengaluru Urban,"H K Hospital, Bengaluru North, Bengaluru Urban, Karnataka, India",13.0267381,77.6394104
653,Marigold Hospital,Bengaluru North,Bengaluru Urban,"Marigold Hospital, Bengaluru North, Bengaluru Urban, Karnataka, India",12.9136323,77.6044488
654,Cura Hospitals,Bengaluru North,Bengaluru Urban,"Cura Hospitals, Bengaluru North, Bengaluru Urban, Karnataka, India",12.888359,77.561163
657,Trustwell Hospitals Pvt Ltd,Bengaluru North,Bengaluru Urban,"Trustwell Hospitals Pvt Ltd, Bengaluru North, Bengaluru Urban, Karnataka, India",12.8117615,77.5042934
659,Yogananda Multispeciality Hospital,Bengaluru North,Bengaluru Urban,"Yogananda Multispeciality Hospital, Bengaluru North, Bengaluru Urban, Karnataka, India",12.917998,77.559425
661,Mallige Medical Centre Pvt Ltd,Bengaluru North,Bengaluru Urban,"Mallige Medical Centre Pvt Ltd, Bengaluru North, Bengaluru Urban, Karnataka, India",12.8117615,77.5042934
662,Ayaansh Hospital,Bengaluru North,Bengaluru Urban,"Ayaansh Hospital, Bengaluru North, Bengaluru Urban, Karnataka, India",12.9780745,77.6357839
666,Mathrushree Diagnostics And Fertility Centre,Bengaluru North,Bengaluru Urban,"Mathrushree Diagnostics And Fertility Centre, Bengaluru North, Bengaluru Urban, Karnataka, India",12.8117615,77.5042934
669,Yenepoya Nursing Home,Bengaluru North,Bengaluru Urban,"Yenepoya Nursing Home, Bengaluru North, Bengaluru Urban, Karnataka, India",12.8117615,77.5042934
670,Rainbow Childrens Medicare Private Limited,Bengaluru North,Bengaluru Urban,"Rainbow Childrens Medicare Private Limited, Bengaluru North, Bengaluru Urban, Karnataka, India",12.8117615,77.5042934
672,Blue Bliss Hospitala Unit Of Lalitha Healthcare Pvt. Ltd.,Bengaluru North,Bengaluru Urban,"Blue Bliss Hospitala Unit Of Lalitha Healthcare Pvt. Ltd., Bengaluru North, Bengaluru Urban, Karnataka, India",12.992965,77.576233
674,Genea Fertility Centre,Bengaluru North,Bengaluru Urban,"Genea Fertility Centre, Bengaluru North, Bengaluru Urban, Karnataka, India",12.8117615,77.5042934
675,Fortis Lafemme,Bengaluru North,Bengaluru Urban,"Fortis Lafemme, Bengaluru North, Bengaluru Urban, Karnataka, India",12.965733,77.609756
676,Sparsh Hospital For Advances Surgeries,Bengaluru North,Bengaluru Urban,"Sparsh Hospital For Advances Surgeries, Bengaluru North, Bengaluru Urban, Karnataka, India",12.8117615,77.5042934
677,Apollo Specialty Hospitals Private Limited,Bengaluru North,Bengaluru Urban,"Apollo Specialty Hospitals Private Limited, Bengaluru North, Bengaluru Urban, Karnataka, India",12.8117615,77.5042934
679,Dr  Sunny Medical Centre,Bengaluru North,Bengaluru Urban,"Dr  Sunny Medical Centre, Bengaluru North, Bengaluru Urban, Karnataka, India",12.9269332,77.669889
681,Nelivigi Multispeciality Hospital,Bengaluru North,Bengaluru Urban,"Nelivigi Multispeciality Hospital, Bengaluru North, Bengaluru Urban, Karnataka, India",12.9240449,77.6737124
682,Jyotsnareddy Hospital Pvt Ltd,Bengaluru North,Bengaluru Urban,"Jyotsnareddy Hospital Pvt Ltd, Bengaluru North, Bengaluru Urban, Karnataka, India",12.8117615,77.5042934
691,Abhayahasta Multispeciality Hospitall,Bengaluru North,Bengaluru Urban,"Abhayahasta Multispeciality Hospitall, Bengaluru North, Bengaluru Urban, Karnataka, India",12.9854758,77.6724436
692,Sparsh Hospital ( A Unit Of Shiva & Shiva Orthopaedic Hospital Private Limited ),Bengaluru North,Bengaluru Urban,"Sparsh Hospital ( A Unit Of Shiva & Shiva Orthopaedic Hospital Private Limited ), Bengaluru North, Bengaluru Urban, Karnataka, India",12.8117615,77.5042934
693,Srushti Hospital,Bengaluru North,Bengaluru Urban,"Srushti Hospital, Bengaluru North, Bengaluru Urban, Karnataka, India",12.898063,77.620771
696,Offspring Maternity And Child Care,Bengaluru North,Bengaluru Urban,"Offspring Maternity And Child Care, Bengaluru North, Bengaluru Urban, Karnataka, India",12.9770207,77.5446787
697,Rainbow Childrerns Medicare Private Limited,Bengaluru North,Bengaluru Urban,"Rainbow Childrerns Medicare Private Limited, Bengaluru North, Bengaluru Urban, Karnataka, India",12.8117615,77.5042934
698,Kauvery Hospitals Bengaluru Private Limited,Bengaluru North,Bengaluru Urban,"Kauvery Hospitals Bengaluru Private Limited, Bengaluru North, Bengaluru Urban, Karnataka, India",12.8117615,77.5042934
699,Suresh Hospital And Maternity Home,Bengaluru North,Bengaluru Urban,"Suresh Hospital And Maternity Home, Bengaluru North, Bengaluru Urban, Karnataka, India",12.938697,77.551783
702,New Beginnings Womens Clinic,Bengaluru North,Bengaluru Urban,"New Beginnings Womens Clinic, Bengaluru North, Bengaluru Urban, Karnataka, India",12.8117615,77.5042934
703,Vivan Multispeciality And Maternity Hospital,Bengaluru North,Bengaluru Urban,"Vivan Multispeciality And Maternity Hospital, Bengaluru North, Bengaluru Urban, Karnataka, India",12.8117615,77.5042934
704,Sri Sai Krupa Hosptal,Bengaluru North,Bengaluru Urban,"Sri Sai Krupa Hosptal, Bengaluru North, Bengaluru Urban, Karnataka, India",13.029558,77.5594998
707,Ghsis Gosha Hoapital Shivaji Nagar  Bangalore,Bengaluru North,Bengaluru Urban,"Ghsis Gosha Hoapital Shivaji Nagar  Bangalore, Bengaluru North, Bengaluru Urban, Karnataka, India",13.1845684,77.4792812
708,Ghsis Gosha Hospital Shivaji Nagar Bangalore,Bengaluru North,Bengaluru Urban,"Ghsis Gosha Hospital Shivaji Nagar Bangalore, Bengaluru North, Bengaluru Urban, Karnataka, India",13.1845684,77.4792812
709,K C Raju Multi Specialty  Hospital,Bengaluru North,Bengaluru Urban,"K C Raju Multi Specialty  Hospital, Bengaluru North, Bengaluru Urban, Karnataka, India",12.9190968,77.6382137
710,Govt. Hsis Gosha Hospital Shivajinagar Bangalore,Bengaluru North,Bengaluru Urban,"Govt. Hsis Gosha Hospital Shivajinagar Bangalore, Bengaluru North, Bengaluru Urban, Karnataka, India",13.1845684,77.4792812
711,Mahalakshmi  Womens Clinic,Bengaluru North,Bengaluru Urban,"Mahalakshmi  Womens Clinic, Bengaluru North, Bengaluru Urban, Karnataka, India",12.94225601,77.58144723
713,Mitra Medical Centre,Bengaluru North,Bengaluru Urban,"Mitra Medical Centre, Bengaluru North, Bengaluru Urban, Karnataka, India",12.937851,77.5571697
714,Novita Fetal And Womens Clinic,Bengaluru North,Bengaluru Urban,"Novita Fetal And Womens Clinic, Bengaluru North, Bengaluru Urban, Karnataka, India",12.8117615,77.5042934
716,Usha Vikranth Diagnostic Center And Hospital,Bengaluru North,Bengaluru Urban,"Usha Vikranth Diagnostic Center And Hospital, Bengaluru North, Bengaluru Urban, Karnataka, India",12.9138448,77.5273236
718,Rajshekar Multi Speciality Hospital Pvt Ltd,Bengaluru North,Bengaluru Urban,"Rajshekar Multi Speciality Hospital Pvt Ltd, Bengaluru North, Bengaluru Urban, Karnataka, India",12.8117615,77.5042934
720,Vijayashree Hospital,Bengaluru North,Bengaluru Urban,"Vijayashree Hospital, Bengaluru North, Bengaluru Urban, Karnataka, India",12.8578496,77.589288
721,Medax Hospitals,Bengaluru North,Bengaluru Urban,"Medax Hospitals, Bengaluru North, Bengaluru Urban, Karnataka, India",13.0267381,77.6394104
723,Aster Hospital,Bengaluru North,Bengaluru Urban,"Aster Hospital, Bengaluru North, Bengaluru Urban, Karnataka, India",13.0267381,77.6394104
724,Chiraayu Hospital,Bengaluru North,Bengaluru Urban,"Chiraayu Hospital, Bengaluru North, Bengaluru Urban, Karnataka, India",13.0092756,77.5949048
727,Promise Healthcare,Bengaluru North,Bengaluru Urban,"Promise Healthcare, Bengaluru North, Bengaluru Urban, Karnataka, India",12.8117615,77.5042934
728,Prasad Hospital,Bengaluru North,Bengaluru Urban,"Prasad Hospital, Bengaluru North, Bengaluru Urban, Karnataka, India",13.105662,77.577248
729,Citi Hospital,Bengaluru North,Bengaluru Urban,"Citi Hospital, Bengaluru North, Bengaluru Urban, Karnataka, India",12.9856547,77.5490203
732,Kangaroo Care  Hospital A Unit Of Surabhi Healthcare Ans Research Pvt Ltd,Bengaluru North,Bengaluru Urban,"Kangaroo Care  Hospital A Unit Of Surabhi Healthcare Ans Research Pvt Ltd, Bengaluru North, Bengaluru Urban, Karnataka, India",12.8117615,77.5042934
733,Motherhood Women And Children Hospital,Bengaluru North,Bengaluru Urban,"Motherhood Women And Children Hospital, Bengaluru North, Bengaluru Urban, Karnataka, India",12.926929,77.561117
734,Pragathi Nursing Home.,Bengaluru North,Bengaluru Urban,"Pragathi Nursing Home., Bengaluru North, Bengaluru Urban, Karnataka, India",12.99884,77.5462736
735,R.K.Hospitals,Bengaluru North,Bengaluru Urban,"R.K.Hospitals, Bengaluru North, Bengaluru Urban, Karnataka, India",13.0267381,77.6394104
736,Vishvas Fertility And Gynaecology And Nandi Diagnostics,Bengaluru North,Bengaluru Urban,"Vishvas Fertility And Gynaecology And Nandi Diagnostics, Bengaluru North, Bengaluru Urban, Karnataka, India",12.8117615,77.5042934
738,Anjani Hospital,Bengaluru North,Bengaluru Urban,"Anjani Hospital, Bengaluru North, Bengaluru Urban, Karnataka, India",13.0267381,77.6394104
739,Sri Vinayaka General And Maternity Hospital,Bengaluru North,Bengaluru Urban,"Sri Vinayaka General And Maternity Hospital, Bengaluru North, Bengaluru Urban, Karnataka, India",12.872634,77.652654
741,Sandya Sreenath,Bengaluru North,Bengaluru Urban,"Sandya Sreenath, Bengaluru North, Bengaluru Urban, Karnataka, India",12.93792231,77.58310006
742,Manjunatha Hospital,Bengaluru North,Bengaluru Urban,"Manjunatha Hospital, Bengaluru North, Bengaluru Urban, Karnataka, India",12.94844,77.5940792
743,Sri Lakshmi Super Speciality Hospital,Bengaluru North,Bengaluru Urban,"Sri Lakshmi Super Speciality Hospital, Bengaluru North, Bengaluru Urban, Karnataka, India",13.070628,77.502344
746,Pan Nagarbhavi Hospitals Pvt Ltd,Bengaluru North,Bengaluru Urban,"Pan Nagarbhavi Hospitals Pvt Ltd, Bengaluru North, Bengaluru Urban, Karnataka, India",12.928142,77.57727
747,Shree Manyata Hospitals,Bengaluru North,Bengaluru Urban,"Shree Manyata Hospitals, Bengaluru North, Bengaluru Urban, Karnataka, India",13.0267381,77.6394104
748,Digvish Hospital,Bengaluru North,Bengaluru Urban,"Digvish Hospital, Bengaluru North, Bengaluru Urban, Karnataka, India",13.0267381,77.6394104
749,Vijayanagar Hospital,Bengaluru North,Bengaluru Urban,"Vijayanagar Hospital, Bengaluru North, Bengaluru Urban, Karnataka, India",12.9715395,77.5372608
750,Ace Suhas Hospital.Ace Embedded Intensive Care Units Pvt Ltd,Bengaluru North,Bengaluru Urban,"Ace Suhas Hospital.Ace Embedded Intensive Care Units Pvt Ltd, Bengaluru North, Bengaluru Urban, Karnataka, India",12.8117615,77.5042934
751,Hospital,Bengaluru North,Bengaluru Urban,"Hospital, Bengaluru North, Bengaluru Urban, Karnataka, India",12.800428,77.507801
752,Apple Hospital,Bengaluru North,Bengaluru Urban,"Apple Hospital, Bengaluru North, Bengaluru Urban, Karnataka, India",13.103959,77.583761
753,Mannat Fertility Clinic,Bengaluru North,Bengaluru Urban,"Mannat Fertility Clinic, Bengaluru North, Bengaluru Urban, Karnataka, India",13.0635117,77.586728
755,V R Chest And Women Care,Bengaluru North,Bengaluru Urban,"V R Chest And Women Care, Bengaluru North, Bengaluru Urban, Karnataka, India",12.8117615,77.5042934
757,Vividus Health Private Limited,Bengaluru North,Bengaluru Urban,"Vividus Health Private Limited, Bengaluru North, Bengaluru Urban, Karnataka, India",12.9451393,77.6073925
758,Skanda Health Care,Bengaluru North,Bengaluru Urban,"Skanda Health Care, Bengaluru North, Bengaluru Urban, Karnataka, India",12.8117615,77.5042934
762,M S Ramaiah Hospital,Bengaluru North,Bengaluru Urban,"M S Ramaiah Hospital, Bengaluru North, Bengaluru Urban, Karnataka, India",13.0283472,77.5698396
763,Sidvin Hospital Pvt Ltd,Bengaluru North,Bengaluru Urban,"Sidvin Hospital Pvt Ltd, Bengaluru North, Bengaluru Urban, Karnataka, India",12.8117615,77.5042934
764,Motherhood Hospital A Unit Of Rhea Healthcare Pvt. Ltd.,Bengaluru North,Bengaluru Urban,"Motherhood Hospital A Unit Of Rhea Healthcare Pvt. Ltd., Bengaluru North, Bengaluru Urban, Karnataka, India",12.860475,77.780236
765,Kids Clinic India Private Limited Cloudnine Hospital,Bengaluru North,Bengaluru Urban,"Kids Clinic India Private Limited Cloudnine Hospital, Bengaluru North, Bengaluru Urban, Karnataka, India",12.8117615,77.5042934
767,Vatsalya Maternity Home & Gynacological Center Athani,Athni,Belagavi,"Vatsalya Maternity Home & Gynacological Center Athani, Athni, Belagavi, Karnataka, India",16.73095,75.0861
